stop_id,stop_code,stop_name,stop_desc,stop_lat,stop_lon,zone_id,stop_url,location_type,parent_station
23336,5513,"Manners Street at Cuba Street (Burger King)","MannersSt@CubaSt",-41.29094333,174.7766342,,,0,
10304,5514,"Courtenay Place - Courtenay Central","Courtenay Central",-41.29294772,174.7798881,,,0,
10309,5516,"Courtenay Place - Blair Street","CourtenayPlc@Blair",-41.29377612,174.782646,,,0,
10268,6012,"Kent Terrace at Pirie Street (near 43)","KentTce@Pirie",-41.29691969,174.7824661,,,0,
10266,6013,"Kent Terrace at Basin Reserve","KentTce@Basin",-41.29884119,174.7814084,,,0,
10213,6014,"Basin Reserve - Adelaide Road","Basin Reserve",-41.30162082,174.7797746,,,0,
10211,6015,"Adelaide Road at Broomhedge St (near 85)","AdelaideRd@85",-41.30410459,174.7789373,,,0,
10209,6016,"Adelaide Road at Hospital Road (near 171)","AdelaideRd@171",-41.30650732,174.7782214,,,0,
10158,6017,"Wellington Hospital","Wellington Hospital Stop",-41.30897264,174.778579,,,0,
10111,6019,"Newtown Shops - Riddiford St at Wilson St","Newtown Shops",-41.31272788,174.779602,,,0,
11764,6920,"Riddiford Street (near 233)","RiddifordSt@233",-41.31580854,174.7804731,,,0,
11777,6123,"Rintoul Street (near 191)","RintoulSt@191",-41.31951389,174.7779428,,,0,
11775,6124,"Berhampore Shops - Luxford St (opposite BP)","Berhampore Shops",-41.31993026,174.7756469,,,0,
11769,6125,"Adelaide Road at Herald Street (near 493)","AdelaideRd@493",-41.32122009,174.7753451,,,0,
11767,6126,"Adelaide Road at Dawson Street (near 531)","AdelaideRd@531",-41.32310185,174.7754115,,,0,
11765,6127,"Adelaide Road (near 559)","AdelaideRd@559",-41.3246502,174.7751009,,,0,
10043,6128,"Adelaide Road at Berhampore Golf Course","AdelaideRd@GolfCour",-41.32798315,174.7744086,,,0,
10042,6129,"The Parade at Dee Street (near 17)","TheParade@Dee",-41.32938434,174.7740329,,,0,
10022,6130,"The Parade at Tamar Street (near 69)","TheParade@Tamar",-41.33155033,174.773776,,,0,
10021,6131,"The Parade at Avon Street (near 109)","TheParade@Avon",-41.33326448,174.7735832,,,0,
10020,6132,"Island Bay Shops - The Parade (near 145)","Island Bay Shops",-41.33486122,174.7734112,,,0,
10002,6133,"The Parade at Mersey Street (near 217)","TheParade@Mersey",-41.33751287,174.7725744,,,0,
11749,6134,"The Parade at Humber Street (near 311)","TheParade@Humber",-41.34078436,174.7712525,,,0,
11745,7135,"Island Bay - The Parade","IslandBay-TheParade",-41.34266889,174.7703176,,,0,
11748,7134,"The Parade at Humber Street (Amba Dairy)","TheParade@Humber",-41.34062359,174.7711645,,,0,
10003,7960,"Mersey Street at Clyde Street (near 30)","MerseySt@Clyde",-41.33745792,174.7736047,,,0,
10004,7959,"Melrose Road at Melbourne Road (near 1)","MelroseSt@Melbourne",-41.33809102,174.7763168,,,0,
10005,7958,"Melrose Road (near 41)","MelroseSt@41",-41.33662335,174.7792103,,,0,
10009,7956,"Melrose Road at Southgate Road","MelroseSt@Southgate",-41.33779167,174.7808323,,,0,
10006,6954,"Buckley Road at Bann Street (near 207)","BuckleyRd@Bann",-41.34202805,174.7802165,,,0,
10001,7955,"Orchy Crescent at Buckley Road","OrchyCres@Buckley",-41.34293976,174.7791964,,,0,
10007,7954,"Buckley Road at Bann Street (near 178)","BuckleyRd@Bann",-41.34182072,174.7801935,,,0,
10008,7953,"Buckley Road at Melrose Road (near 160)","BuckleyRd@Melrose",-41.34034718,174.7806107,,,0,
10010,7952,"Buckley Road (opposite 143)","BuckelyRd@143",-41.33905526,174.7811539,,,0,
10011,7951,"Buckley Road (near 108)","BuckleyRd@108",-41.33684474,174.7827236,,,0,
10025,7950,"Buckley Road (near 78)","BuckleyRd@78",-41.33499644,174.7841064,,,0,
10024,7949,"Buckley Road (near 44)","BuckleyRd@44",-41.33282025,174.7833634,,,0,
10023,7948,"Buckley Road at Houghton Bay Rd (near 6)","BuckleyRd@6",-41.33067497,174.782613,,,0,
22393,7939,"Sinclair Park - Houghton Bay Road (near 27)","Sinclair Park",-41.33075796,174.7851657,,,0,
22394,6931,"Hornsey Road at Houghton Bay Rd (near 133)","HornseyRd@133",-41.33200115,174.7871246,,,0,
22395,6932,"View Road at Houghton Bay Road","View@HoughtonBayRd",-41.33337262,174.7887004,,,0,
22396,6933,"View Road (near 33)","ViewRd@33",-41.33495001,174.7892122,,,0,
22397,6934,"View Road at Twomey Grove (near 59)","ViewRd@Twomey",-41.33668721,174.7897502,,,0,
22399,6935,"View Road at Hungerford Road (near 97)","ViewRd@Hungerford",-41.33832239,174.7901642,,,0,
10013,7338,"Lyall Bay - Hungerford Road (near 2)","Lyall Bay Terminus",-41.33791211,174.7920775,,,0,
10029,7337,"Queens Drive (near 304)","QueensDrv@304",-41.3355028,174.7910545,,,0,
10028,7336,"Queens Drive at Sutherland Road (near 252)","QueensDrv@252",-41.33230897,174.7910383,,,0,
10031,7334,"Queens Drive at Rua Street (near 190)","QueensDrv@Rua",-41.33050429,174.7916433,,,0,
10048,7333,"Rua Street at Freyberg Street (near 2)","RuaSt@Freyburg",-41.32996858,174.7931049,,,0,
10050,7332,"Lyall Parade at Onepu Road","LyallPde@Onepu",-41.32922431,174.7950813,,,0,
10049,7331,"Onepu Road at Apu Crescent (near 194)","OnepuRd@Apu",-41.32771973,174.7952312,,,0,
10052,7330,"Lyall Bay Shops - Onepu Road (near 140)","Lyall Bay Shops",-41.32533455,174.7952452,,,0,
10074,7328,"Onepu Road at Endeavour Street (near 96)","OnepuRd@Endeavour",-41.32335113,174.7952651,,,0,
10073,7327,"Kilbirnie Bus Depot - Onepu Road (near 56)","Kilbirnie Bus Depot",-41.3207853,174.7953065,,,0,
10122,7026,"Kilbirnie Shops - Stop A","Kilbirnie Shops-A",-41.31807216,174.7953515,,,0,
11581,7025,"Rongotai Road at Childers Terrace (near 2)","RongotaiRd@Childers",-41.31771812,174.7937296,,,0,
11582,7024,"Crawford Road at Kilbirnie Tennis Club","Crawford@TennisClub",-41.31596458,174.790756,,,0,
11583,7023,"Crawford Road at Wellington Road (opposite)","Crawford@Wellington",-41.31353745,174.7893638,,,0,
11584,7022,"Constable Street at Coromandel St","ConstableSt@123",-41.31270415,174.7867817,,,0,
11585,7021,"Constable Street at Owen Street (near 84)","ConstableSt@84",-41.31297321,174.7847057,,,0,
11586,7020,"Constable Street (near 14)","ConstableSt@14",-41.31366713,174.7807581,,,0,
11587,7019,"Newtown Shops - Riddiford St opp Wilson St","Newtown Shops",-41.31296377,174.7794546,,,0,
11588,7018,"Riddiford Street at Hall St","RiddifordSt@HallSt",-41.3112237,174.7789708,,,0,
10159,7017,"Wellington Hospital (opposite)","Wellington Hospital",-41.30902629,174.7782817,,,0,
10208,7016,"Adelaide Road at Hospital Road (near 138)","AdelaideRd@138",-41.30624548,174.7781407,,,0,
10210,7015,"Adelaide Road at King Street (near 80)","AdelaideRd@King",-41.30390968,174.778862,,,0,
10212,7014,"Basin Reserve - Adelaide Road (McDonalds)","Basin Reserve",-41.3016246,174.7795409,,,0,
10265,7013,"Cambridge Terrace at Basin Reserve","CambridgeTce@Basin",-41.29863579,174.7810074,,,0,
10267,7012,"Cambridge Terrace at Vivian Street (near 54)","CambridgeTce@Vivian",-41.29681971,174.782063,,,0,
10270,6212,"Elizabeth Street at Kent Terrace (near 7)","ElizabethSt@Kent",-41.29587208,174.7837168,,,0,
10272,6213,"Brougham Street at Elizabeth Street (near 51)","Brougham@Elizabeth",-41.29692888,174.7852781,,,0,
10273,6214,"Pirie Street at Porritt Avenue (near 77)","PirieSt@Porritt",-41.29828442,174.7859915,,,0,
10276,6215,"Pirie Street at Bus Tunnel (near 123)","PirieSt@BusTunnel",-41.29898134,174.788063,,,0,
10216,6216,"Waitoa Road at Bus Tunnel","WaitoaRd@BusTunnel",-41.30180366,174.7916943,,,0,
10219,6217,"Hataitai Village (near 38)","Hataitai Village",-41.30389374,174.7938431,,,0,
10221,6557,"Hataitai Road at Huia Road (near 120)","HataitaiRd@Huia",-41.30199765,174.7966939,,,0,
10277,6558,"Hataitai Road (near 90)","HataitaiRd@90",-41.29991484,174.7981669,,,0,
10278,6559,"Hataitai Road at Hataitai School (near 128)","HataitaiRd@128",-41.29791238,174.800281,,,0,
10279,6530,"Hataitai School - Arawa Road","Hataitai School",-41.29860589,174.8012585,,,0,
10280,6531,"Arawa Road at Te Anau Road","ArewaRd@TeAnau",-41.29982484,174.8014365,,,0,
10224,6532,"Waipapa Road at Peranga Terrace (near 31)","WaipapaRd@Peranga",-41.30075653,174.8001179,,,0,
10223,6533,"Waipapa Road at Kainui Road (near 75)","WaipapaRd@Kainui",-41.30250179,174.7984541,,,0,
10222,6534,"Waipapa Road (near 101)","WaipapaRd@101",-41.30354471,174.7971621,,,0,
10220,6535,"Hataitai Village (Tunnel Laundrette)","Hataitai Village",-41.30434574,174.794752,,,0,
10166,6218,"Moxham Avenue at Raupo Street (near 87)","MoxhamAve@Raupo",-41.30734243,174.7930315,,,0,
10162,6219,"Kilbirnie School - Moxham Avenue","MoxhamAve@School",-41.308725,174.7925836,,,0,
10164,6220,"Kupe Street at Hamilton Road","KupeSt@Hamilton",-41.31016017,174.7926702,,,0,
10168,6221,"Hamilton Road at Wellington Road (near 115)","HamiltonRd@115",-41.31177741,174.7936148,,,0,
10116,6222,"Wellington Regional Aquatic Centre","Wgtn Aquatic Centre",-41.31509888,174.7931313,,,0,
10119,6223,"Kilbirnie Library - Kilbirnie Crescent","Kilbirnie Library",-41.31595555,174.7938887,,,0,
10121,6224,"Kilbirnie Shops - Stop C","Kilbirnie Shops-C",-41.31767575,174.7951624,,,0,
10078,6027,"Rongotai Road at Ross Street (near 119)","RongotaiRd@Ross",-41.31852876,174.7988236,,,0,
10082,6028,"Rongotai Road at Troy Street (near 141)","RongotaiRd@Troy",-41.31900135,174.8012674,,,0,
10127,6080,"Miramar Avenue at Tauhinu Road","MaramarAv@Tauhinu",-41.31476195,174.8127897,,,0,
10130,6081,"Miramar Avenue - Miramar Shops","MiramarAve@Shops",-41.31587858,174.8152899,,,0,
10135,6234,"Park Road at Byron Street (near 45)","ParkRd@Byron",-41.31413204,174.8177661,,,0,
10136,6235,"Park Road at Brussels Street (near 63)","ParkRd@Brussels",-41.31311947,174.8185742,,,0,
10179,6236,"Park Road at Rotherham Terrace (near 91)","ParkRd@Rotherham",-41.31180712,174.8196308,,,0,
10187,7240,"Darlington Road at Camperdown Rd (near 104)","DralingtonRd@104",-41.30741734,174.8257514,,,0,
10185,7239,"Darlington Road at Totara Terrace (near 64)","DarlingtonRd@64",-41.3093429,174.8248951,,,0,
10183,7238,"Darlington Road at Puriri Street (near 26)","DarlingtonRd@26",-41.31182669,174.8237974,,,0,
10141,6272,"Para Street at Awa Road (near 82)","ParaSt@AwaRd",-41.31324038,174.8224612,,,0,
10140,6273,"Miramar Central School - Para Street (opposite","Miramar Central Sch",-41.31536507,174.8204694,,,0,
10139,6274,"Marist Holy Cross School - Para Street","Marist Holy Cross",-41.31726994,174.8193902,,,0,
10095,7232,"Hobart Street at Chelsea Street (near 104)","HobartSt@Chelsea",-41.31956826,174.8143909,,,0,
11822,6032,"Hobart Street at Kedah Street (near 32)","HobartSt@Kedah",-41.32362695,174.8125347,,,0,
11824,6033,"Broadway at Hobart Street (near 383)","Broadway@Hobart",-41.32530089,174.8123207,,,0,
11825,6034,"Broadway at Crawford Green (near 411)","Broadway@Crawford",-41.32522962,174.8146237,,,0,
10063,6091,"Scots College - Monorgan Road","Scotts College",-41.3279918,174.8182057,,,0,
10034,6092,"Raukawa Street at Nuku Street (near 37)","RaukawaSt@NukuSt",-41.3307564,174.8171721,,,0,
10033,6093,"Taiaroa Street at Raukawa Street (near 1)","TaiaroaSt@Raukawa",-41.33171267,174.8169841,,,0,
10037,6094,"Taiaroa Street at Tukanae Street (near 27)","TaiaroaSt@Tukanae",-41.33417556,174.8174423,,,0,
10038,6095,"Tukanae Street (near 12)","TukanaeSt@12",-41.33282727,174.819229,,,0,
10041,6096,"Tukanae Street at Ahuriri Street (near 2)","TukanaeSt@Ahuriri",-41.33404774,174.8194975,,,0,
10018,6097,"Ahuriri Street (near 41)","AhuririSt@41",-41.33625372,174.8174338,,,0,
10016,6098,"Ahuriri Street at Kekerenga Street (near 55)","AhuririSt@Kekerenga",-41.33651246,174.8163325,,,0,
10015,6099,"Ahuriri Street at Kekerenga Street (near 71)","AhuririSt@Kekerenga",-41.33740278,174.8140704,,,0,
10014,7099,"Strathmore Park Terminus","Strathmore Park",-41.33617421,174.8138938,,,0,
10017,7098,"Kekerenga Street at Ahuriri Street (near 2)","KekerengaSt@Ahuriri",-41.33606137,174.8162952,,,0,
22443,7097,"Ahuriri Street (near 30)","AhuririSt@30",-41.33607882,174.8176348,,,0,
10040,7096,"Ahuriri Street at Tukanae Street (near 4)","AhuririSt@Tukanae",-41.33425886,174.8194681,,,0,
10039,7095,"Tukanae Street (near 11)","TukanaeSt@11",-41.33314714,174.8192255,,,0,
10036,7094,"Taiaroa Street at Tukanae Street (near 24)","TairoaSt@Tukanae",-41.33405062,174.8172138,,,0,
10032,7092,"Raukawa Street (near 40)","RaukawaSt@40",-41.33121259,174.8165566,,,0,
10062,7091,"Scots College - Monorgan Road (near 44)","Scotts College",-41.32804402,174.8180116,,,0,
10065,6035,"Broadway at The Quadrant (near 451)","Broadway@451",-41.32505696,174.8184311,,,0,
11828,6036,"Strathmore Park Shops - Broadway (opposite)","StrathmoreParkShops",-41.32441988,174.8206711,,,0,
11883,6037,"Broadway at Tio Tio Road (near 535)","Broadway@TioTio",-41.32390824,174.8235328,,,0,
11884,6038,"Broadway at Cavendish Square (near 569)","Broadway@Cavendish",-41.32431078,174.8258223,,,0,
11885,6039,"Ferry Street at Dundas Street (near 48)","FerrySt@Dundas",-41.32259187,174.8287536,,,0,
11886,6040,"Seatoun Village - Dundas Street (near 23)","Seatoun Village",-41.32259051,174.8306589,,,0,
11887,6041,"Dundas Street at Monro Street (near 55)","DundasSt@Monro",-41.32317661,174.833593,,,0,
11888,6042,"Seatoun Park - Monro Street","Seatoun Park-Monro",-41.32547425,174.8332163,,,0,
11832,7042,"Seatoun Park - Hector Street","Seatoun Park",-41.32546514,174.8345997,,,0,
10308,5000,"Courtenay Place - Paramount","Courtenay Place",-41.29387054,174.7824333,,,0,
10306,5002,"Courtenay Place - St James Theatre","Courtenay Place",-41.29312834,174.7799087,,,0,
23337,5515,"Manners Street at Cuba Street (Body Shop)","MannersSt@CubaSt",-41.29152745,174.7772118,,,0,
10330,5006,"Manners Street at Willis Street","MannersSt@Willis",-41.28958935,174.7748868,,,0,
22215,5008,"Willis Street - Grand Arcade","WillisSt@GrandArc",-41.28694201,174.7758323,,,0,
10332,5010,"Lambton Quay - Cable Car","LambtonQy@CableCar",-41.28381709,174.7753065,,,0,
10347,5012,"Lambton Quay - Farmers","LambtonQy@Farmers",-41.28283037,174.775534,,,0,
10355,5015,"Lambton Quay - North End, Stop F","LambtonQy@NthEnd-F",-41.27957893,174.776739,,,0,
11657,5911,"The Terrace at Bolton Street (near 25)","TheTerrace@Bolton",-41.27982201,174.7754303,,,0,
11658,5912,"The Terrace at Aurora Terrace (near 85)","TheTerrace@Aurora",-41.2814461,174.7751041,,,0,
11659,5913,"The Terrace at Dalmuir Lane (near 135)","TheTerrace@Dalmuir",-41.2834908,174.7746365,,,0,
11660,5914,"Salamanca Road at The Terrace","SalamancaRd@Terrace",-41.28884937,174.7714652,,,0,
11661,5915,"Victoria University - Kelburn Parade","VictoriaUni-Kelburn",-41.28901208,174.7678673,,,0,
11662,5916,"Upland Road at Glasgow Street (near 39)","UplandRd@Glasgow",-41.28783678,174.7657105,,,0,
11663,5917,"Kelburn Village - Upland Road (St Michael's)","Kelburn Village",-41.28936315,174.7625092,,,0,
11664,5918,"Kelburn Normal School - Upland Road (opposite)","Kelburn Normal Sch",-41.28719907,174.7606992,,,0,
11599,5319,"Glenmore Street at Karori Tunnel","GlenmoreSt@Tunnel",-41.28759613,174.7563665,,,0,
11600,5320,"Karori Sanctuary - Chaytor Street (Appleton Pa","Zealandia-ChaytorSt",-41.28641495,174.7545662,,,0,
11601,5321,"Chaytor Street at Curtis Street (opposite)","ChaytorSt@Curtis",-41.28459222,174.7529024,,,0,
11602,5322,"Chaytor Street at Joll Street","CahytorSt@Joll",-41.28302244,174.7519659,,,0,
11603,5323,"Karori Road at Standen Street (near 93)","KaroriRd@Standen",-41.28147644,174.7503076,,,0,
11604,5324,"Marsden Village - Karori Road (near 141)","Marsden Village",-41.28239532,174.7459805,,,0,
11605,5325,"Karori Normal School - Karori Road","Karori Normal Sch",-41.28377243,174.7410508,,,0,
11606,5326,"Karori Road at Campbell Street (near 223)","KaroriRd@Campbell",-41.28423465,174.7394441,,,0,
11607,5327,"Karori Mall - Karori Road (opposite)","Karori Mall",-41.28489081,174.7372278,,,0,
11609,5328,"St Teresa's - Karori Road (near 291)","KaroriRd@StTeresas",-41.28560763,174.7347588,,,0,
11610,5329,"Karori Road at Burrows Avenue (near 333)","KaroriRd@Burrows",-41.2865761,174.7312803,,,0,
11611,5330,"Karori Road at Tringham Street (near 357)","KaroriRd@Tringham",-41.28690247,174.7287689,,,0,
11613,5331,"Karori Park Pavilion - Karori Road (opposite)","Karori Pk Pavilion",-41.2871944,174.72515,,,0,
11614,5332,"Karori Road at St Philips Church (near 415)","KaroriParkPavilion",-41.28846901,174.7237396,,,0,
11943,5366,"Hazelwood Avenue (near 33)","HazelwoodAve@33",-41.29292621,174.722617,,,0,
11945,5367,"Hazelwood Avenue (near 23)","HazelwoodAve@23",-41.29423808,174.7240205,,,0,
11947,5368,"Hazelwood Avenue (near 67)","HazelwoodAve@67",-41.29712351,174.7241916,,,0,
11949,5369,"South Karori - Hazelwood Avenue (near 89)","HazelwoodAve@89",-41.29873345,174.7221239,,,0,
11616,4332,"Karori Park","Karori Park Stop",-41.28897593,174.7232891,,,0,
11951,4365,"Woodhouse Avenue at South Karori Rd (near 1)","WoodhouseAve@1",-41.28890142,174.7239685,,,0,
11953,4364,"Woodhouse Avenue (opposite 24)","WoodhouseAve@24",-41.28984857,174.7254468,,,0,
11955,4363,"Woodhouse Avenue at Parklands Dr","Woodhouse@Parklands",-41.29189382,174.724806,,,0,
11957,4362,"Parklands Drive at Landsdowne Terrace (near 18","ParklandsDr@18",-41.29092463,174.72578,,,0,
11959,4361,"Parklands Drive at Collier Avenue","ParklandsDr@Collier",-41.28943559,174.7268085,,,0,
11961,4360,"Collier Avenue (near 20)","CollierAve@20",-41.2879039,174.7278389,,,0,
11919,5341,"Marshall Street at Tringham Street (near 1)","MarshallSt@Tringham",-41.28601302,174.7275907,,,0,
11920,5342,"Marshall Street at Hildreth Street","MarshallSt@Hildreth",-41.28455025,174.7268396,,,0,
11922,5343,"Sunshine Avenue at Percy Dyett Drive","SunshineAve@Percy",-41.28364961,174.725849,,,0,
11923,5344,"Sunshine Avenue at Victory Avenue","SunshineAve@Victory",-41.28248361,174.72753,,,0,
11924,5345,"Victory Avenue at Tobruk Street","VictoryAve@Tobruk",-41.28138004,174.7286592,,,0,
11925,5346,"Victory Avenue at Montgomery Ave","Victory@Montgomery",-41.28307707,174.7300008,,,0,
11938,5347,"Montgomery Avenue (near 13)","MongomeryAve@13",-41.28236773,174.7304521,,,0,
11928,5348,"Montgomery Avenue (near 35)","MontgomeryAve@35",-41.28070616,174.7305477,,,0,
11930,5349,"Montgomery Ave at Alanbrooke Place (near 51)","MontgomeryAve@51",-41.27954705,174.730565,,,0,
11932,5350,"Montgomery Ave at Caldwell St","Montgomery@Caldwell",-41.27955249,174.7281931,,,0,
11934,5351,"Montgomery Ave at Skyline Reserve","MontgomeryAve@92",-41.27854548,174.7268774,,,0,
11936,4352,"Karori West - Montgomery Avenue","Karori West",-41.27799689,174.728037,,,0,
11933,4350,"Montgomery Ave at Caldwell St (opposite 75)","Montgomery@Caldwell",-41.27939002,174.7282286,,,0,
11931,4349,"Montgomery Ave at Alanbrooke Place","MontgomeryAve@64",-41.279443,174.7307053,,,0,
11929,4348,"Montgomery Avenue (near 50)","MontgomeryAve@50",-41.28062534,174.7307361,,,0,
11937,4347,"Montgomery Avenue (near 24)","MongomeryAve@24",-41.28226832,174.73068,,,0,
11926,4346,"Victory Avenue at Montgomery Ave (near 38)","Victory@Montgomery",-41.28334789,174.7299524,,,0,
11939,4345,"Victory Avenue at Tobruk Street (near 14)","VictoryAve@Tobruk",-41.28151057,174.7287417,,,0,
11940,4344,"Sunshine Avenue at Victory Avenue (near 46)","SunshineAve@Victory",-41.28260169,174.7276562,,,0,
11941,4343,"Sunshine Avenue at Percy Dyett Drive (near 18)","SunshineAve@Percy",-41.28377485,174.725888,,,0,
11921,4342,"Marshall Street at Hildreth Street (near 26)","MarshallSt@Hildreth",-41.2844188,174.7269992,,,0,
11942,4341,"Marshall Street at Tringham Street (near 4)","MarshallSt@Tringham",-41.28589065,174.7277582,,,0,
11618,4330,"Karori Road at Tringham Street","KaroriRd@Tringham",-41.28679053,174.7285271,,,0,
11619,4329,"Karori Road at Richmond Avenue (near 340)","KaroriRd@Richmond",-41.28660095,174.7302269,,,0,
11620,4328,"St Teresa's - Karori Road (near 294)","KaroriRd@StTeresas",-41.28538008,174.7349906,,,0,
21869,4395,"Beauchamp Street at Dasent Street (near 39)","BeauchampSt@39",-41.28771604,174.7384863,,,0,
21870,4394,"Beauchamp Street at Henderson St (near 63)","BeauchampSt@63",-41.28905172,174.7391319,,,0,
21871,4393,"Beauchamp Street at Verviers St (near 79)","BeauchampSt@79",-41.29022412,174.7397406,,,0,
21872,4392,"Verviers Street at Kano Street (near 37)","VerviersSt@kano",-41.29002549,174.7409956,,,0,
21873,4391,"Campbell Street (near 133)","CampbellSt@133",-41.29073267,174.7421755,,,0,
21874,4390,"Campbell Street (near 171)","CampbellSt@171",-41.29295649,174.7440981,,,0,
21875,4389,"Croydon Street (near 64)","CroydonSt@64",-41.29393226,174.7459491,,,0,
21876,4388,"Croydon Street at Versailles Street","Croydon@Versailles",-41.29185271,174.7467836,,,0,
21877,4387,"Croydon Street (near 2)","CroydonSt@2",-41.29052956,174.7467908,,,0,
21878,4386,"Duthie Street at Hurman Street","DuthieSt@Hurman",-41.28952627,174.7473327,,,0,
21879,4385,"Duthie Street at Gipps Street","DuthieSt@Gipps",-41.28770427,174.747524,,,0,
11631,4384,"Plymouth Street at Messines Road","PlymouthSt@Messines",-41.28674027,174.7496976,,,0,
11632,4383,"Messines Road (near 22)","MessinesRd@22",-41.28548596,174.7489397,,,0,
11633,4382,"Messines Road at Braithwaite Street (near 2)","MessinesRd@2",-41.28451064,174.7485237,,,0,
11640,5305,"Gipps Street at Shirley Street (near 3)","GippsSt@Shirley",-41.2876048,174.74647,,,0,
11641,5306,"Gipps Street at Donald Street (near 25)","GippsSt@Donald",-41.28819217,174.744405,,,0,
11642,5307,"Donald Street at Firth Terrace (near 56)","DonaldSt@Firth",-41.28710702,174.7434344,,,0,
11643,5308,"Victoria University - Karori Campus","VictoriaUni-Karori",-41.28510921,174.7424421,,,0,
11644,4324,"Marsden Village - Karori Road (near 146)","Marsden Village",-41.28229599,174.745896,,,0,
11645,4323,"Karori Road at Standen Street (near 90)","KaroriRd@Standen",-41.2813182,174.7502239,,,0,
22206,4925,"Northland Road at Seaview Terrace (near 138)","NorthlandRd@Seaview",-41.27954655,174.7613647,,,0,
22207,4924,"Northland Road at Military Road","Northland@Military",-41.2795405,174.7600804,,,0,
22210,4923,"Northland Road (near 88)","NorthlandRd@88",-41.28166717,174.7590565,,,0,
22211,4922,"Northland Village - Northland Road","Northland Village",-41.28341318,174.757531,,,0,
22212,4921,"Northland Tunnel (near Putnam St)","Northland Tunnel",-41.28489309,174.7551692,,,0,
10352,5014,"Lambton Quay - North End, Stop H","LambtonQy@NthEnd-H",-41.27987029,174.7762167,,,0,
10356,5111,"Molesworth Street - Parliament, Stop E","Parliament-E",-41.2786742,174.7781139,,,0,
10379,5112,"Molesworth Street - Cathedral","Molesworth@StPauls",-41.27581289,174.777683,,,0,
10381,5113,"Molesworth Street - New World","Molesworth@NewWorld",-41.27397735,174.7777437,,,0,
10380,5114,"Molesworth Street - Motorway","Molesworth@Motorway",-41.27283403,174.7778047,,,0,
22121,5115,"Park Street at Tinakori Road (near 7)","ParkSt@Tinakori",-41.27154215,174.7771648,,,0,
22122,5116,"Grant Road at Newman Terrace (near 32)","GrantRd@Newman",-41.26917245,174.7782384,,,0,
22124,5117,"Grosvenor Terrace at Orchard Street","Grosvenor@Orchard",-41.2671511,174.779588,,,0,
22125,5118,"Grosvenor Terrace at Lower Watt St","Grosvenor@LowerWatt",-41.26602604,174.7798145,,,0,
22126,5119,"Lennel Road at Lower Watt Street","LennelRd@LowerWatt",-41.26450258,174.7800496,,,0,
22129,5120,"Lennel Road at Sefton Street (near 20)","LennelRd@Sefton",-41.26396362,174.7779697,,,0,
22130,5121,"Wadestown Library - Wadestown Road","Wadestown Library",-41.26254505,174.7765826,,,0,
22131,5123,"Wadestown Road at Pitt Street (near 95)","WadestownRd@Pitt",-41.26180586,174.7751222,,,0,
22132,5124,"Wadestown Shops (near 109)","Wadestown Shops",-41.26201057,174.7739718,,,0,
22133,5125,"Wadestown Road at Lytton Street (near 163)","WadestownRd@Lytton",-41.26169327,174.7693756,,,0,
22134,5126,"Wadestown School - Wilton Road (near 177)","Wadestown School",-41.26166847,174.7678337,,,0,
22135,5127,"Wilton Road at Purakau Avenue (near 11)","WiltonRd@Purakau",-41.2625343,174.7655354,,,0,
22136,5128,"Izard Park - Wilton Road (near 41)","Izard Park",-41.26429771,174.7643165,,,0,
22137,5129,"Wilton Road (near 79)","WiltonRd@79",-41.26622125,174.7630376,,,0,
22480,5136,"Churchill Drive at Wilton Bush Road","ChurchillDr@Wilton",-41.26347053,174.7632011,,,0,
23467,5138,"Churchill Drive near Chartwell Drive","Churchill Dr nr Chartwell Dr",-41.25745831,174.7652888,,,0,
22264,5449,"Ngaio Town Hall - Ottawa Road","Ngaio Town Hall",-41.24995998,174.7734934,,,0,
22265,5450,"Ottawa Road at Awarua Street","OttawaRd@Awarua",-41.2478619,174.774481,,,0,
22316,5435,"Simla Crescent Station (bus stop)","Simla Crescent Stn",-41.2469599,174.7841887,,,0,
22244,4469,"Burma Road at John Sims Drive","BurmaRd@JohnSims",-41.23640049,174.7979891,,,0,
22245,3814,"Broadmeadows - Rajkot Terrace","Broadmeadows-Rajkot",-41.23684486,174.7973757,,,0,
22246,3816,"Rajkot Terrace at Orissa Crescent","RajkotTce@Orissa",-41.23718907,174.7963442,,,0,
22247,3818,"Kanpur Road at Sita Way (near 5)","Kanpur@Sita",-41.23678597,174.7955877,,,0,
22248,3820,"Kanpur Road (near 45)","Kanpur@45",-41.23769042,174.7941116,,,0,
22249,3822,"Kanpur Road (near 59)","Kanpur@59",-41.23760864,174.7918038,,,0,
22250,3824,"Kanpur Road at Juanpur Crescent (near 91)","Kanpur@Juanpur",-41.23550495,174.7929044,,,0,
22251,3826,"Kanpur Road at Nalanda Crescent (near 111)","Kanpur@Nalanda",-41.23394109,174.7926452,,,0,
22252,3828,"Nalanda Crescent at Rajkot Terrace (near 59)","NalandaCres@Rajkot",-41.23411606,174.7947222,,,0,
22254,3830,"Rajkot Terrace at John Sims Drive","RajkotTce@JohnSims",-41.2332723,174.795014,,,0,
22253,3832,"John Sims Drive (near 40)","JohnSimsDr@40",-41.23360879,174.7964006,,,0,
22255,3834,"Broadmeadows - John Sims Drive","Broadmeadows-JohnS",-41.23488581,174.7973945,,,0,
22241,5469,"Burma Road at Fraser Avenue","BurmaRd@Fraser",-41.23675052,174.7981665,,,0,
22242,5460,"Station Road (near 7)","StationRd@7",-41.24212169,174.7929528,,,0,
22317,5461,"Cashmere Avenue (near 57)","CashmereAve@57",-41.24520149,174.7952187,,,0,
22293,4422,"Ranui Crescent at Cashmere Avenue (near 73)","RanuiCres@Cashmere",-41.24715197,174.796628,,,0,
22295,4420,"Everest Street at Ganges Road (near 29)","EverestSt@Ganges",-41.24852986,174.7932669,,,0,
22296,4419,"Khandallah Village (New World)","Khandallah Village",-41.24733501,174.7910942,,,0,
22297,4418,"Clutha Avenue at Nicholson Road (near 3)","CluthaAve@Nicholson",-41.24808854,174.7894378,,,0,
22298,4417,"Clutha Avenue at Cockayne Road (near 47)","CluthaAve@Cockayne",-41.2486497,174.7873474,,,0,
22299,4416,"Cockayne Road at Lucknow Terrace","CockayneRd@Lucknow",-41.24968396,174.7868434,,,0,
22300,4415,"Calcutta Street (near 39)","CalcuttaSt@39",-41.25128241,174.7879183,,,0,
22301,4414,"Waru Street at Calcutta Street (near 7)","WaruSt@Calcutta",-41.2523557,174.7896451,,,0,
22302,4413,"Punjab Street at Waru Street (near 36)","PunjabSt@Waru",-41.25375147,174.7866346,,,0,
22303,4412,"Punjab Street at Cockayne Road (near 10)","PunjabSt@Cockayne",-41.25221959,174.7852191,,,0,
22304,4411,"Cockayne Road at Bankot Crescent (near 155)","CockayneRd@Bankot",-41.25223861,174.7828632,,,0,
22305,4410,"Cockayne Road at Setsan Way (near 205)","CockayneRd@Setsan",-41.25279172,174.779368,,,0,
22306,4409,"Cockayne Road at Quetta Street","CockayneRd@Quetta",-41.25257206,174.7770454,,,0,
22307,4408,"Perth Street at Crofton Road (near 1)","PerthSt@Crofton",-41.25484755,174.7749975,,,0,
22308,4407,"Perth Street at Orari Street Walkway (near 15)","PerthSt@Orari",-41.25468239,174.7735918,,,0,
22324,4406,"Ngaio Gorge Road (near 17)","NgaioGorgeRd@17",-41.25630653,174.7733628,,,0,
22325,4405,"Ngaio Gorge Road (near 67)","NgaioGorgeRd@67",-41.25646528,174.775574,,,0,
22326,4404,"Ngaio Gorge Road (near 105)","NgaioGorgeRd@105",-41.25631242,174.7783331,,,0,
22327,4403,"Kaiwharawhara Road (near 68)","KaiwharawharaRd@68",-41.25758128,174.7827581,,,0,
22328,4402,"Kaiwharawhara Road (near 36)","KaiwharawharaRd@36",-41.25865533,174.7877263,,,0,
22329,4401,"Kaiwharawhara Road at Hutt Road","KaiwharawharaRd@1",-41.25962849,174.7890378,,,0,
10359,5016,"Wellington Station - Stop D","Wgtn Station-D",-41.27836012,174.7789249,,,0,
10385,5018,"Thorndon Quay - Capital Gateway (opposite)","ThorndonQy@75",-41.27596404,174.7819528,,,0,
10387,5020,"Thorndon Quay at Davis Street (near 125)","ThorndonQy@Davis",-41.27425901,174.7833749,,,0,
10386,5022,"Thorndon Quay (opposite Bordeaux Bakery)","ThorndonQy@191",-41.27145809,174.7817134,,,0,
10395,5024,"Thorndon Quay at Motorway (Hirequip)","ThorndonQy@Motorway",-41.26974319,174.7809104,,,0,
10399,5025,"Hutt Road at Sar Street","HuttRd@Sar",-41.26704745,174.7816544,,,0,
10409,5026,"Hutt Road at Aotea Quay","HuttRd@AoteaQuay",-41.2636741,174.7848557,,,0,
10412,5028,"Kaiwharawhara - Hutt Road (Fore St)","HuttRd@Fore",-41.2595541,174.7903309,,,0,
10438,3260,"Hutt Road at Rangiora Avenue","HuttRd@Rangiora",-41.25554704,174.796694,,,0,
21990,3262,"Ngauranga - Hutt Road (opposite motorway)","Ngauranga-HuttRd",-41.24765163,174.8122982,,,0,
21991,3264,"Ngauranga Commercial Centre - Centennial Hwy","Ngauranga Comm Ctr",-41.24459881,174.8132036,,,0,
21989,3266,"Ngauranga Gorge (Kiwi Point)","Ngauranga Gorge",-41.23763057,174.8050859,,,0,
21992,3600,"Newlands Bus Depot - Newlands Road (opposite)","Newlands Bus Depot",-41.2311641,174.8121404,,,0,
21993,3602,"Newlands Road (opposite 72)","NewlandsRd@72",-41.23040784,174.8147714,,,0,
21994,3604,"Newlands Road at Salford Street","NewlandsRd@Salford",-41.22867355,174.8181095,,,0,
21995,3606,"Newlands Road at Stella Grove (near 143)","NewlandsRd@Stella",-41.22644595,174.8190024,,,0,
21996,3608,"Newlands Park (Northpac Timber)","Newlands Park",-41.22390398,174.8215693,,,0,
21969,3516,"Kenmore Street Plunket Rooms","KenmoreSt@Plunket",-41.22351857,174.8252006,,,0,
21970,3518,"Kenmore Street (near 72)","KenmoreSt@72",-41.2254641,174.8272495,,,0,
21971,3520,"Link Road (near 29)","LinkRd@29",-41.22763257,174.8256155,,,0,
21972,3522,"Glanmire Road at Turville Cres (near 85)","GlanmireRd@Turville",-41.22880827,174.8238236,,,0,
21973,3524,"Kenmore Street (near 5)","KenmoreSt@5",-41.2285686,174.8256977,,,0,
21974,3526,"Kenmore Street at Barclay Street (near 35)","KenmoreSt@Barclay",-41.22785471,174.8283463,,,0,
21975,3528,"Somes Crescent at Dress Circle (near 10)","Somes@DressCircle",-41.2271605,174.8301283,,,0,
21976,3530,"Somes Crescent at Sunhaven Dr (near 23)","SomesCres@Sunhaven",-41.22638162,174.8313519,,,0,
21977,3532,"Somes Crescent at Baylands Dr (near 45)","SomesCres@Baylands",-41.22515836,174.8308495,,,0,
21978,3534,"Baylands Drive at Bayswater Place (near 79)","BaylandsCr@79",-41.22291877,174.8299715,,,0,
21979,3536,"Horokiwi Road at Bloomsbury Grove","Horokiwi@Bloomsbury",-41.22231557,174.8292266,,,0,
21980,3538,"Horokiwi Road at Pinkerton Grove (near 44)","Horokiwi@Pinkerton",-41.22296554,174.8272111,,,0,
21997,3610,"Newlands Shops - Bracken Road","Newlands Shops",-41.22284345,174.8232053,,,0,
21998,3410,"Bracken Road (near 29)","BrackenRd@29",-41.2216573,174.822843,,,0,
21999,3412,"Bracken Road at Trebann Street (near 45)","BrackenRd@Trebann",-41.22081565,174.8222299,,,0,
22000,3414,"Newlands College - Bracken Road (opposite)","Newlands College",-41.21913803,174.8225181,,,0,
22040,3416,"Beazley Avenue at Bracken Road (near 110)","BeazleyAve@Bracken",-41.2173802,174.8209447,,,0,
22041,3418,"Beazley Avenue at Beverley Grove (near 92)","BeazleyAve@Beverley",-41.21624699,174.8204571,,,0,
22042,3420,"Paparangi School - Beazley Avenue (opposite)","Paparangi School",-41.21506801,174.8192375,,,0,
22043,3422,"Paparangi Shops","Paparangi Shops Stop",-41.21386213,174.8176545,,,0,
22044,3424,"Mark Avenue (near 37)","MarkAve@37",-41.21263216,174.816812,,,0,
22045,3426,"Mark Avenue (near 75)","MarkAve@75",-41.21142091,174.8158213,,,0,
22046,3428,"Mark Avenue Park","Mark Avenue Park Stop",-41.20784283,174.8187113,,,0,
22047,3430,"Guadeloupe Crescent at Mandeville Cres","Guadaloupe@Mandevil",-41.20912922,174.8215538,,,0,
22048,3432,"Guadeloupe Crescent (near 39)","Guadaloupe@39",-41.20883205,174.8233806,,,0,
22049,3450,"Grenada Village - Guadeloupe Crescent","Grenada Village",-41.20683316,174.8233545,,,0,
22051,3452,"Mark Avenue at Buccaneer Place (near 134)","MarkAv@Buccaneer",-41.20748169,174.820783,,,0,
22052,3454,"Grenada Grounds - Mark Avenue (opposite)","Grenada Grounds",-41.20800182,174.8193974,,,0,
22053,3456,"Mark Avenue (near 64)","MarkAv@64",-41.21129521,174.8162783,,,0,
22054,3458,"Mark Avenue (near 40)","MarkAv@40",-41.21224167,174.8169645,,,0,
22055,3460,"Paparangi Shops (opposite)","Paparangi Shops",-41.21389484,174.818152,,,0,
22056,3462,"Paparangi School - Beazley Avenue","Paparangi School",-41.21458436,174.8191285,,,0,
22057,3464,"Beazley Avenue at Beverley Grove (near 91)","BeazleyAv@Beverley",-41.21644381,174.8210226,,,0,
22001,3612,"Bracken Road at Carluke Street","BrackenRd@Carluke",-41.21822959,174.8202767,,,0,
22002,3614,"Helston Road at Paparangi Crescent","HelstonRd@Paparangi",-41.21791537,174.8175879,,,0,
22003,3616,"Helston Road at Warren Street (near 168)","HelstonRd@Warren",-41.21678887,174.8159263,,,0,
22004,3618,"Helston Road (near 142)","HelstonRd@142",-41.21696999,174.8152374,,,0,
22005,3620,"Helston Road at McMahon Way (near 112)","HelstonRd@McMahon",-41.21747962,174.8136382,,,0,
22006,3622,"Helston Park - Helston Road","Helson Park",-41.21917806,174.8130777,,,0,
22007,3624,"Helston Road at Hardy Street","HelstonRd@Hardy",-41.22078891,174.8122548,,,0,
21957,3482,"Helston Road at Petherick Crescent","HelstonRd@Petherick",-41.22193391,174.8101321,,,0,
10616,3200,"Middleton Road (near 25)","MiddletonRd@25",-41.21931716,174.8081241,,,0,
10642,3202,"Middleton Road (near 59)","MiddletonRd@59",-41.21732998,174.8091067,,,0,
10643,3204,"Middleton Road (near 71)","MiddletonRd@71",-41.21600293,174.8098908,,,0,
10645,3206,"Middleton Road at Churton Drive","Middleton@ChurtonDr",-41.21406795,174.8109374,,,0,
10711,3208,"Middleton Road at Wingfield Place (opposite)","Middleton@Wingfield",-41.21107553,174.8112971,,,0,
22093,3210,"Halswater Drive at Dormar Place","HalswaterDr@Dormar",-41.20771746,174.8110509,,,0,
22094,3212,"Burbank Crescent at Wantwood Street","BurbankCres@17",-41.2055516,174.8098375,,,0,
22095,3214,"Burbank Crescent at Longmont Terrace","BurbankCres@41",-41.20365999,174.8102532,,,0,
22096,3216,"Lakewood Avenue at Westchester Drive","Lakewood@Westchestr",-41.20250534,174.8081099,,,0,
22097,3218,"Westchester Drive (near 111)","WestchesterDr@111",-41.2027112,174.806682,,,0,
22100,3220,"Amesbury Drive at Derry Hill","AmesburyDr@Derry",-41.20194537,174.8045458,,,0,
22101,3222,"Amesbury Drive at Claverton Grove","AmesburyDr@31",-41.20040074,174.8029617,,,0,
22102,3224,"Amesbury Drive at Erlestoke Crescent","AmesburyDr@47",-41.19929892,174.8014081,,,0,
22103,3226,"Erlestoke Crescent (near 17)","ErlestrokeCres@17",-41.19998009,174.7999445,,,0,
22104,3228,"Waverton Terrace at Sandy Brow","Waverton@SandyBrow",-41.20181268,174.7997533,,,0,
22105,3230,"Waverton Terrace (near 30)","WavertonTce@30",-41.20295154,174.8020881,,,0,
22106,3232,"Waverton Terrace (near 12)","WavertonTce@12",-41.20489874,174.8027381,,,0,
22098,3234,"Westchester Drive at Waverton Terrace","WestchesterDr@179",-41.20625126,174.8038719,,,0,
22099,3236,"Halswater Drive at Lakewood Avenue","Halswater@Lakewood",-41.20706366,174.8050328,,,0,
10714,3974,"Middleton Road at Wingfield Place","Middleton@Wingfield",-41.21046276,174.8121511,,,0,
10646,3976,"Middleton Road at Churton Drive (near 122)","Middleton@ChurtonDr",-41.21407374,174.8114944,,,0,
10644,3978,"Middleton Road (near 76)","MiddletonRd@76",-41.21590366,174.8105195,,,0,
22485,3980,"Middleton Road (near 48)","MiddletonRd@48",-41.21861017,174.8096203,,,0,
10615,3982,"Middleton Road (near 18)","MiddletonRd@18",-41.21983318,174.8085029,,,0,
22058,3010,"Bassett Road (near 15)","BassettRd@15",-41.2192212,174.8069793,,,0,
22059,3012,"Johnsonville School - Ohariu Road","Johnsonville School",-41.21892441,174.8046199,,,0,
22060,3014,"Ohariu Road at Hallewell Cres (near 67)","OhariuRd@Hallewell",-41.21729886,174.8022062,,,0,
22061,3016,"Branscombe Street (near 5)","BranscombeSt@5",-41.21600017,174.8021439,,,0,
22062,3018,"Branscombe Street at Ironside Road","Branscombe@Ironside",-41.21768495,174.800003,,,0,
22063,3020,"Erris Street at Ironside Road (near 101)","ErrisSt@Ironside",-41.2191781,174.7989702,,,0,
22064,3022,"Erris Street at Tatum Way (near 27)","ErrisSt@Tatum",-41.21832678,174.7973423,,,0,
22066,3024,"Erris Street at Cortina Avenue (near 61)","ErrisSt@Cortina",-41.21842346,174.7950591,,,0,
22067,3026,"Cortina Avenue at Stonefield Place (near 54)","CortinaAv@54",-41.21929392,174.7959785,,,0,
22068,3028,"Cortina Avenue at Safari Crescent (near 42)","CortinaAv@42",-41.22094005,174.7966871,,,0,
22069,3030,"Cortina Avenue (near 20)","CortinaAv@20",-41.22241291,174.7980148,,,0,
22070,3034,"Truscott Avenue at Fairburn Grove","TruscottAv@Fairburn",-41.22630129,174.7958542,,,0,
22071,3036,"McLintock Street at Truscott Avenue (near 3)","McLintockSt@3",-41.22712081,174.79274,,,0,
22072,3038,"McLintock St at Meadowcroft Grove","McLintockSt@27",-41.22531968,174.7935531,,,0,
22073,3040,"McLintock Street at Norwood Place (near 59)","McLintockSt@59",-41.22349216,174.7917501,,,0,
22074,3042,"Johnsonville West - McLintock Street","McLintockSt@88",-41.22136555,174.7921258,,,0,
22076,3052,"McLintock St at Meadowcroft Grove (opposite)","McLintockSt@28",-41.22523731,174.7942189,,,0,
22077,3054,"Truscott Avenue at Elliott Street","TruscottAv@Elliot",-41.2272784,174.7936718,,,0,
22078,3056,"Truscott Avenue at Fairburn Gr (near 18)","TruscottAv@Fairburn",-41.2257394,174.795597,,,0,
22079,3058,"Truscott Avenue (near 102)","TruscottAv@102",-41.22409195,174.797236,,,0,
22531,3844,"Broderick Road (Hail and Ride)","Broderick Road",-41.22416412,174.8007976,,,0,
10614,3000,"Johnsonville Station - Stop A","Johnsonville Stn-A",-41.22344211,174.8048762,,,0,
11177,2001,"Porirua Station - Stop A","Porirua Station-A",-41.13749078,174.8431437,,,0,
11174,2006,"Lyttelton Avenue - Ferry Place","Lyttelton@FerryPlc",-41.13543099,174.8421317,,,0,
11246,2008,"Lyttelton Avenue - Countdown (opposite)","Lyttelton@Countdown",-41.13398808,174.8406381,,,0,
11237,2800,"Prosser Street (opposite 22)","ProsserSt@22",-41.13379279,174.8326313,,,0,
11236,2802,"Kotuku Street (near 13)","KotokuSt@13",-41.13294583,174.8288447,,,0,
11234,2804,"Kotuku Street (near 45)","KotokuSt@45",-41.13047255,174.827812,,,0,
11291,2806,"Kotuku Street at Takapuwahai Drive (near 89)","KotokuSt@89",-41.12788884,174.8292692,,,0,
11292,2808,"Takapuwahia Drive at Rangituhi Cres (near 22)","TakapuwhaiaDr@22",-41.12609578,174.8290786,,,0,
11295,2810,"Takapuwahia Drive at Te Hiko Street (near 60)","TakapuwhaiaDr@60",-41.12426263,174.8314265,,,0,
11297,2812,"Te Hiko Street (near 8)","TeHikoSt@8",-41.12409893,174.8350201,,,0,
11300,2814,"Whitireia Polytechnic - Titahi Bay Road (oppos","Whitireia Polytech",-41.12418443,174.8368,,,0,
11338,2816,"Titahi Bay Road at Whanga Cres Walkway","TitahiBayRd@Walkway",-41.11935389,174.8387561,,,0,
11468,2906,"Main Road at Dimock Street (near 80)","MainRd@Dimock",-41.10928221,174.8405269,,,0,
11528,2832,"Dimock Street (near 71)","Dimock@71",-41.10419101,174.8444826,,,0,
11529,2834,"Dimock Street (near 99)","Dimock@99",-41.10128634,174.8448717,,,0,
11552,2836,"Dimock Street (near 141)","Dimock@141",-41.09935342,174.8423024,,,0,
11526,2838,"Thornley Street at Dimock Street (near 28)","ThornleySt@Dimock",-41.1000333,174.839806,,,0,
11463,2912,"Titahi Bay Library - Tireti Road","Titahi Bay Library",-41.10830816,174.8361099,,,0,
11393,2956,"Te Pene Avenue at Te Puke Street (near 75)","TePeneAve@TePuke",-41.11242342,174.83787,,,0,
11396,2958,"Te Pene Avenue at Piko Street (near 125)","TePeneAve@PikoSt",-41.11644323,174.8385219,,,0,
11182,2100,"Mungavin Park - Mungavin Avenue","Mungavin Park",-41.13920896,174.8509877,,,0,
11185,2102,"Mungavin Avenue at Gear Terrace (near 41)","MungavinAve@41",-41.13978057,174.8530502,,,0,
11134,2104,"Mungavin Avenue (near 69)","MungavinAve@69",-41.14095302,174.8553412,,,0,
11136,2105,"Trust Porirua Park - Mungavin Avenue (opposite","Trust Porirua Park",-41.14295637,174.8568324,,,0,
11137,2106,"Mungavin Avenue at Sievers Gr (near 145)","MungavinAve@Seivers",-41.14192024,174.8582383,,,0,
11139,2108,"Holy Family School - Mungavin Avenue","Holy Family School",-41.1402438,174.8596495,,,0,
11145,2110,"Mungavin Avenue at Bedford St (near 201)","MungavinAve@Bedford",-41.14096012,174.8637627,,,0,
11151,2112,"Cannons Creek Shops - Warspite Avenue (opposit","Cannons Creek Shops",-41.14086617,174.866277,,,0,
11196,2114,"Warspite Avenue at Castor Crescent (near 51)","WarspiteAve@Castor",-41.13922286,174.8689594,,,0,
11198,2116,"Calliope Park - Warspite Avenue","Calliope Park",-41.13788512,174.8703093,,,0,
22855,2111,"Warspite Ave at Fantame St (School stop)","WarspiteAve@Fantame",-41.13692427,174.8722849,,,0,
11201,2118,"Warspite Avenue (near 115)","WarspiteAve@115",-41.13593326,174.8744408,,,0,
11210,2120,"Warspite Avenue (near 165)","WarspiteAve@165",-41.13387511,174.8794397,,,0,
11254,2122,"Warspite Avenue (near 183)","WarspiteAve@183",-41.13241563,174.8797273,,,0,
11256,2124,"Waitangirua Mall - Warspite Avenue","Waitangirua Mall",-41.12910406,174.8799861,,,0,
22941,2125,"Warspite Avenue (near 305)","WarspiteAve@305",-41.12639186,174.8802417,,,0,
11306,2126,"Warspite Avenue at Penguin Gr (near 335)","WarspiteAve@335",-41.12466412,174.88073,,,0,
11304,2128,"Warspite Avenue (near 367)","WarspiteAve@367",-41.12251155,174.8791114,,,0,
11351,2130,"Conclusion Street (near 7)","ConclusionSt@7",-41.12099796,174.8763183,,,0,
11350,2132,"Conclusion Street (near 47)","ConclusionSt@47",-41.11837057,174.8751662,,,0,
11346,2134,"Rangikura School - Conclusion Street","Rangikura School",-41.11768681,174.8711536,,,0,
11343,2136,"Ascot Park - Conclusion Street (near 141)","Ascot Park",-41.11900616,174.8688587,,,0,
11347,2140,"Desert Gold Street (near 8)","DesertGoldSt@8",-41.12102238,174.8717375,,,0,
11344,2780,"Warspite Avenue (near 461)","WarspiteAve@461",-41.12109748,174.8692941,,,0,
11302,2784,"Whitford Brown Ave at Aotea Lodge (opposite)","WhitfordBrownAve",-41.12311274,174.8568299,,,0,
11341,2500,"RNZ Police College - Papakowhai Road (Lagoon)","RNZ Police College",-41.1205395,174.8577572,,,0,
11342,2502,"Tweed Road at Langwell Street (near 78)","TweedRd@Langwell",-41.11698968,174.8614641,,,0,
11405,2504,"Tweed Road at Ness Grove (near 52)","TweedRd@NessGr",-41.11471987,174.8637537,,,0,
11406,2506,"Tweed Road at Papakowhai Dairy (opposite)","TweedRd@Dairy",-41.11290713,174.8657641,,,0,
11477,2508,"Eskdale Road at Forth Place (near 13)","EskdaleRd@Forth",-41.11056678,174.8652593,,,0,
11409,2510,"Eskdale Road at Moray Place (near 61)","Eskdale@Moray",-41.11130296,174.8681252,,,0,
11411,2512,"Lauderdale Road (opposite 14)","LauderdaleRd@14",-41.11047526,174.8705792,,,0,
11480,2514,"Tirowhanga Road (near 20)","TirowhangaRd@20",-41.10994858,174.8720173,,,0,
11482,2516,"Kahu Road (near 51)","KahuRd@51",-41.10747722,174.8748588,,,0,
23089,2518,"Kahu Road (near 61)","KahuRd@61",-41.106773,174.8763277,,,0,
11484,2520,"Kahu Road (near 108)","KahuRd@108",-41.10812076,174.8788332,,,0,
11485,2522,"Kahu Road at Kenef Road","KahuRd@Kenef",-41.10677342,174.8787706,,,0,
11532,2524,"Oak Avenue (near 14)","OakAve@14",-41.10418839,174.8780054,,,0,
11487,2526,"Postgate Drive at Browns Bay Park (near 5)","PostgateDr@5",-41.10701554,174.8812628,,,0,
11414,2528,"Postgate Drive at Staithes Drive North (near 3","PostgateDr@39",-41.11144686,174.8821413,,,0,
11417,2530,"Spinnaker Drive at Hicks Close (near 258)","SpinnakerRd@Hicks",-41.11387261,174.8836252,,,0,
11420,2710,"Spinnaker Drive at Spinnaker Walkway","SpinnakerRd@Walkway",-41.11238061,174.8870665,,,0,
23093,2712,"Discovery Drive at Spinnaker Drive (near 7)","Discovery@Spinnaker",-41.11155169,174.889273,,,0,
23094,2714,"Discovery Drive (near 51)","DiscoveryDr@51",-41.11371718,174.8883237,,,0,
11358,2716,"Discovery Drive at Mariners Way","Discovery@Mariners",-41.11614399,174.8903447,,,0,
11359,2718,"Whitby Lakes (Lower Lake)","Whitby Lakes-Lower",-41.11888153,174.8921491,,,0,
11428,2724,"Discovery Drive at The Haven (near 87)","Discovery@TheHaven",-41.11519734,174.8978133,,,0,
11430,2726,"Discovery Drive (near 109)","DiscoveryDr@109",-41.11592825,174.8995755,,,0,
11363,2728,"James Cook Drive at Discovery Drive","JamesCook@Discovery",-41.11586382,174.9013312,,,0,
11432,2730,"James Cook Drive at Sailmaker Close","JamesCook@Sailmaker",-41.11289986,174.9012273,,,0,
11433,2732,"James Cook Drive at Observatory Close","JamesCook@ObservCls",-41.1109293,174.9019774,,,0,
11501,2734,"Joseph Banks Drive (near 21)","JosephBanksDr@21",-41.10814743,174.9054809,,,0,
11503,2736,"Joseph Banks Drive at The Masthead (near 51)","JosephBanksDr@51",-41.10826345,174.9082664,,,0,
11505,2737,"Joseph Banks Drive (near 91)","JosephBanksDr@91",-41.10760262,174.9138194,,,0,
10921,3910,"Main Road opposite Outlet City","MainRd at OutletCity",-41.18355584,174.8247103,,,0,
10955,3911,"Redwood Village - Main Road (opposite)","Redwood Village",-41.17933015,174.824629,,,0,
10956,3912,"Main Road Tawa at Redwood Ave (near 85)","MainRdTawa@85",-41.17753984,174.825099,,,0,
10994,3914,"Main Road Tawa at Elena Place (near 159)","MainRdTawa@Elene",-41.17238066,174.8244881,,,0,
11037,3916,"Tawa Mall - Main Road (Harcourts)","Tawa Mall",-41.16878887,174.8246452,,,0,
11039,3918,"Main Road Tawa (near 249)","MainRdTawa@249",-41.16519419,174.8264072,,,0,
11068,3920,"Main Road Tawa at McLellan St (opposite)","MainRdTawa@McLellan",-41.16149866,174.8272068,,,0,
11086,3922,"Main Road Tawa (near 329)","MainRdTawa@329",-41.15648783,174.8294326,,,0,
11098,3930,"Kenepuru Drive at Rahia Street","KenepuruDr@Rahia",-41.14872188,174.8337982,,,0,
11100,3932,"Kenepuru Drive at Ambulance Drive","Kenepuru@Ambulance",-41.14841654,174.8377428,,,0,
11102,3934,"Kenepuru Drive at Bowland (opposite)","KenepuruDr@Bowland",-41.14752019,174.8400757,,,0,
22483,3936,"Kenepuru Drive at The Mill (opposite)","KenepuruDr@TheMill",-41.14041269,174.841404,,,0,
11361,2720,"Whitby Village","Whitby Village Stop",-41.11759132,174.8938577,,,0,
23095,2722,"Whitby College - Discovery Drive","Whitby College",-41.11578826,174.8944147,,,0,
11531,2604,"Paremata Road (near 132)","ParemataRd@132",-41.10337325,174.8777396,,,0,
22775,2521,"Mana Marina","Mana Marina Stop",-41.1011031,174.8697476,,,0,
22943,2523,"Mana Esplanade","Mana Esplanade Stop",-41.09576959,174.869005,,,0,
22565,2513,"Plimmerton Shops, Steyne Avenue (Hail & Ride)",,-41.08353913,174.8664569,,,0,
10733,8115,"Lower Hutt - Queensgate, Stop B","Lower Hutt-B",-41.20993534,174.9048109,,,0,
10673,8113,"Queens Drive at Central Library","QueensDr@Library",-41.21179572,174.9005136,,,0,
10671,8112,"Victoria Street at Weltec, Block F (near 64)","VictoriaSt@Weltec",-41.21409063,174.8950377,,,0,
10665,8111,"Victoria Street at Alice Street (near 46)","VictoriaSt@Alice",-41.21519079,174.893195,,,0,
10626,8110,"Alicetown Shops (near 438)","Alicetown Shops",-41.21666513,174.8911384,,,0,
10624,8009,"Cuba Street at Burnham Street (near 150)","CubaSt@Burnham",-41.21953424,174.8893617,,,0,
10593,8008,"Cuba Street at Manchester Street (near 96)","CubaSt@Manchester",-41.22324559,174.8873062,,,0,
10589,8007,"Cuba Street at Jackson Street (near 42)","CubaSt@Jackson",-41.22692111,174.8854514,,,0,
10587,8006,"Jackson Street at Bolton Street","JacksonSt@Bolton",-41.22692671,174.8832481,,,0,
10586,8005,"Jackson Street at Beach Street","JacksonSt@Beach",-41.22595922,174.8799672,,,0,
10583,8004,"Jackson Street at Sydney Street","JacksonSt@Sydney",-41.22474741,174.8758289,,,0,
10581,8003,"Jackson Street at Pak N Save","JacksonSt@PaknSave",-41.22375874,174.8723026,,,0,
10579,8002,"Jackson Street at Kathmandu","JacksonSt@Kathmandu",-41.22284829,174.8695193,,,0,
10578,8001,"Te Puni Mail Centre","HuttRd@Mail Centre",-41.22378328,174.8662879,,,0,
10382,4113,"Murphy Street - Wellington Girls","MurphySt@Wgtn Girls",-41.27524678,174.7796567,,,0,
10357,5500,"Wellington Station - Stop C","Wgtn Station-C",-41.27861635,174.7787021,,,0,
10351,5502,"Lambton Quay - North End, Stop J","LambtonQy@NthEnd-J",-41.27987139,174.7764564,,,0,
10350,5504,"Lambton Quay - Stout Street","LambtonQy@Stout",-41.28097317,174.7759382,,,0,
10349,5506,"Lambton Quay - Kirkcaldie and Stains","LambtonQy@Kirks",-41.2828718,174.7756748,,,0,
10329,5508,"Lambton Quay - ANZ Bank","LambtonQy@ANZ",-41.2848359,174.7755771,,,0,
10331,5510,"Willis Street - Willbank Court","WillisSt@Willbank",-41.2879368,174.7754951,,,0,
21988,3263,"Hutt Road at Centennial Highway","HuttRd@Centennial",-41.24714673,174.8135861,,,0,
10577,9099,"Te Puni Mail Centre (opposite)","HuttRd@Mail Centre",-41.22352361,174.8660592,,,0,
10580,9002,"Jackson Street at Te Puni Street","JacksonSt@Te Puni",-41.22282964,174.8709077,,,0,
10582,9003,"Jackson Street at Petone Avenue","JacksonSt@PetoneAve",-41.22386547,174.873966,,,0,
10584,9004,"Jackson Street at Palace Cafe","JacksonSt@Palace",-41.22424236,174.8755315,,,0,
10585,9005,"Jackson Street at Britannia Street","JacksonSt@Britanna",-41.2254637,174.8796497,,,0,
10588,9007,"Cuba Street at Jackson Street (near 33)","CubaSt@Jackson",-41.22673281,174.8849848,,,0,
10592,9008,"Cuba Street at Weltec, Block N","CubaSt@Weltec",-41.22466004,174.8859776,,,0,
10623,9009,"Cuba Street at Bouverie Street (opposite 142)","CubaSt@Bouverie",-41.22065365,174.888111,,,0,
10625,9110,"Alicetown Shops","Alicetown Shops Stop",-41.21657432,174.8907649,,,0,
10663,9111,"Victoria Street at Alice Street (near 85)","VictoriaSt@Alice",-41.21498398,174.8928049,,,0,
10669,9112,"Victoria Street at Weltec, Block F","VictoriaSt@Weltec",-41.21364477,174.8950721,,,0,
10672,9113,"Queens Drive at Central Library (opposite)","QueensDr@Library",-41.21168142,174.9000365,,,0,
10677,9114,"Lower Hutt - Centre City Plaza","Centre City Plaza",-41.2102321,174.9029556,,,0,
10732,9115,"Lower Hutt - Queensgate, Stop A","Lower Hutt-A",-41.20923023,174.9045951,,,0,
10741,9117,"High Street at Kirk Motors","HighSt@KirkMotors",-41.20651252,174.9080676,,,0,
10744,9118,"High Street at Melling Road","HighSt@Melling",-41.20496294,174.9117438,,,0,
10810,9121,"Ropata Medical Centre (near 583)","Ropata Medical Ctr",-41.20367869,174.9167901,,,0,
10811,9122,"High Street at Knox Presbyterian Church (near","HighSt@KnoxChurch",-41.20356263,174.919022,,,0,
10813,9223,"Hutt Hospital - High Street (opposite)","Hutt Hospital",-41.20317293,174.9244178,,,0,
10815,9224,"Boulcott Village (near 71)","Boulcott Village",-41.20297976,174.9277882,,,0,
10818,9225,"High Street at Thornycroft Ave (near 773)","HighSt@Thornycroft",-41.20165444,174.9312758,,,0,
10820,9226,"High Street at Kingston Street (near 805)","HighSt@Kingston",-41.20024244,174.933606,,,0,
10822,9227,"High Street at Park Avenue (near 847)","HighSt@ParkAve",-41.19831623,174.9359127,,,0,
10827,8207,"Naenae College, Daysh Street","DayshSt@Naenae Coll-DayshSt",-41.19816077,174.9391409,,,0,
10835,9260,"Naenae Road at Horlor Street","NaenaeRd@Horlor",-41.20242866,174.9459839,,,0,
10839,9290,"Naenae Road at Vogel Street (near 162)","NaenaeRd@Bertram",-41.20173362,174.9493605,,,0,
10842,9285,"Naenae Road at Rata Street (near 251)","NaenaeRd@Rata",-41.19833003,174.9548925,,,0,
10876,9292,"Naenae Road at Kowhai Street (near 293)","NaenaeRd@Kowhai",-41.19510091,174.9560101,,,0,
10874,9293,"Naenae - Kowhai Street (near 2)","Naenae - Kowhai St",-41.19321928,174.9530816,,,0,
10911,9249,"High Street at Burcham Street (near 1105)","HighSt@Burcham",-41.18630686,174.9548149,,,0,
10940,9250,"High Street at Macky Street (near 1147)","HighSt@Mackey",-41.18355693,174.9575283,,,0,
10973,9251,"Taita Station - High Street, Stop B","Taita Station-B",-41.17985208,174.9606166,,,0,
10975,9253,"High Street at Biddle Crescent (near 1259)","HighSt@Biddle",-41.1757838,174.9618556,,,0,
11006,9254,"High Street at Partridge Street (near 1295)","HighSt@Partridge",-41.17333881,174.9637811,,,0,
11010,9255,"High Street at Farmer Crescent (near 1341)","HighSt@Farmer",-41.17047654,174.9659531,,,0,
11041,9256,"High Street at The Links","HighSt@TheLinks",-41.16682079,174.9664086,,,0,
11043,9257,"High Street at The Endway (riverside)","HighSt@TheEndway",-41.1664175,174.9692079,,,0,
11071,9361,"Stokes Valley Entrance - Stop A","Stokes Valley Ent-A",-41.1615123,174.9823643,,,0,
11058,9362,"Stokes Valley Road at George Street (near 55)","StokesVlyRd@55",-41.16372593,174.9844832,,,0,
11061,9363,"Stokes Valley Road (near 95)","StokesValleyRd@95",-41.16631713,174.9847631,,,0,
22810,9364,"Tui Glen School (near 135)","Tui Glen School",-41.16943742,174.9836502,,,0,
11024,9365,"Stokes Valley Road at Hawthorn Crescent","StokesVlyRd@163",-41.1718488,174.9830964,,,0,
10987,9369,"Stokes Valley Road at Delaney Park (near 225)","StokesVlyRd@225",-41.17623387,174.9822176,,,0,
10986,9370,"Stokes Valley Road at Milton Street (near 255)","StokesVlyRd@255",-41.17791472,174.9823194,,,0,
10988,9371,"Stokes Valley Road at Chittick Street (near 27","StokesVlyRd@275",-41.1794261,174.9825396,,,0,
10953,9374,"Stokes Valley Road at Manuka Street (near 357)","StokesVlyRd@357",-41.18453457,174.9829082,,,0,
10919,9375,"Stokes Valley Road at Kamahi Street","StokesVlyRd@Kamahi",-41.18684879,174.983125,,,0,
11087,9461,"Silver Stream Railway Museum (opposite)","SilverStream Museum",-41.15003173,174.9914451,,,0,
11116,9462,"Silverstream Station - Fergusson Drive (St Pat","SilverstreamStation",-41.14655095,175.0124416,,,0,
11118,9463,"St Joseph's Home of Compassion","St Josephs Home",-41.14512485,175.0156866,,,0,
11159,9464,"Fergusson Drive at Kiwi Street (near 275)","FergussonDr@275",-41.14330179,175.0190613,,,0,
11160,9465,"Fergusson Drive at Golf Road","Fergusson@Golf",-41.14165107,175.0223667,,,0,
11162,9466,"Fergusson Drive at Barton Rd","Fergusson@Barton",-41.13892823,175.027862,,,0,
11211,9567,"Trentham Memorial Park (near 441)","Trentham Park",-41.13687999,175.0319761,,,0,
11214,9568,"Fergusson Drive at Brentwood St","Fergusson@Brentwood",-41.13431154,175.0366672,,,0,
11217,9569,"Fergusson Drive at Merton St","FergussonDr@521",-41.13231229,175.0406403,,,0,
11269,9570,"Trentham School - Fergusson Drive","Trentham School",-41.12980443,175.0455524,,,0,
11271,9571,"Fergusson Drive at Refreshment Plc (near 617)","FergussonDr@617",-41.12857074,175.0480764,,,0,
11273,9572,"Fergusson Rest Home (near 657)","Fergusson Rest Home",-41.12673802,175.0515099,,,0,
11276,9573,"Fergusson Drive at Golders Road (near 699)","FergussonDr@699",-41.12580232,175.0556025,,,0,
11280,9574,"Fergusson Drive at Broadway Shops","FergussonDr@737",-41.12548029,175.0587956,,,0,
11282,9575,"Fergusson Drive at Fraser Crescent","Fergusson@Fraser",-41.12512761,175.0623134,,,0,
11289,9577,"Upper Hutt - Senior Citizens Club","UH Senior Citizens",-41.12552979,175.0693919,,,0,
11290,9580,"Upper Hutt Station - Stop C","Upper Hutt Stn-C",-41.12589007,175.0708273,,,0,
10734,9130,"Lower Hutt - Queensgate, Stop C","Lower Hutt-C",-41.21033361,174.9050577,,,0,
10680,9132,"Cornwall Street at RSA","CornwallSt@RSA",-41.21091533,174.9086402,,,0,
10746,9135,"Waterloo Road at Chilton St James (opposite)","WaterlooRd@Chilton",-41.20992535,174.9140863,,,0,
10687,9136,"Waterloo Road at St Bernards College","Waterloo@StBernards",-41.21048214,174.917102,,,0,
10688,9140,"Waterloo Station - Stop C","Waterloo Station-C",-41.21403676,174.9214146,,,0,
10633,9142,"Guthrie Street at Brook Street (near 11)","GuthrieSt@Brook",-41.21873869,174.9172143,,,0,
10631,9144,"Waiwhetu Road at Grenville Street (near 62)","WaiwhetuRd@62",-41.22173898,174.9163254,,,0,
10602,9145,"Waiwhetu Road at Rodney Street (near 40)","WaiwhetuRd@40",-41.22298784,174.9144318,,,0,
10601,9146,"Wainui Rd at Our Lady Of The Rosary (near 11)","WainuiRd@11",-41.22505054,174.9150706,,,0,
10569,9147,"Griffins - Wainui Road","WainuiRd@61",-41.22830719,174.916998,,,0,
10571,9748,"Wainui Road at Gracefield Road (to Wainui)","WainuiRd@Gracefield",-41.23091695,174.9203745,,,0,
10444,9901,"Wainuiomata Road at Parkway (near 156)","WainuiomataRd@156",-41.25499252,174.9306648,,,0,
10448,9902,"Wainuiomata Road at Rimu Street (near 126)","WainuiomataRd@126",-41.25683637,174.9331211,,,0,
10416,9903,"Wainuiomata Road at Davis Grove (near 76)","WainuiomataRd@76",-41.25930686,174.9373975,,,0,
10418,9904,"Wainuiomata Road at The Strand","Wainuiomata@Strand",-41.26063449,174.941471,,,0,
10423,9905,"Wainuiomata Shopping Centre (Library stop)","Wainuiomata Shops",-41.26212685,174.9460451,,,0,
10426,8985,"Wainuiomata Shopping Centre (Fitzherbert Rd)","Wainuiomata Shops",-41.26185143,174.946822,,,0,
10427,8984,"Fitzherbert Road at Police Station","Fitzherbert@Police",-41.26011757,174.9469172,,,0,
10458,8983,"Nelson Crescent at Miles Crescent","NelsonCres@Miles",-41.25539529,174.9494911,,,0,
10459,8982,"Nelson Crescent at Wise Street (near 17)","NelsonCres@Wise",-41.25467679,174.9511082,,,0,
10463,8981,"Wise Street at Thirlmere Street (near 21)","WiseSt@Thirlmere",-41.25285505,174.9511425,,,0,
10460,8980,"Wise Street at Derwent Street (near 39)","WiseSt@Derwent",-41.25147816,174.9508023,,,0,
10498,8979,"Wise Street at Russell Road (near 89)","WiseSt@Russell",-41.24788596,174.9501853,,,0,
10525,8978,"Wise Street at Pencarrow Crescent (near 127)","WiseSt@Pencarrow",-41.24416087,174.9495646,,,0,
10523,8977,"Norfolk Street (near 28)","NorfolkSt@28",-41.24272305,174.9481131,,,0,
10521,9967,"Wellington Road at Hamstead Street (near 227)","WellingtonRd@227",-41.24066731,174.9446709,,,0,
10545,9968,"Wellington Road at Arakura Park (near 273)","WellingtonRd@273",-41.23765783,174.9457622,,,0,
10547,9969,"Wellington Road at Bexley Grove (near 297)","WellingtonRd@Bexley",-41.23532751,174.9467855,,,0,
10549,9970,"Wellington Road at Stockdale Street (near 325)","WellingtonRd@325",-41.23369265,174.9475649,,,0,
10573,8971,"Wainuiomata North - Ipswich Grove","Wainuiomata North",-41.23144791,174.9482383,,,0,
10548,8970,"Wellington Road at Stockdale Street (near 310)","WellingtonRd@310",-41.23356383,174.9481071,,,0,
10546,8969,"Wellington Road at Kew Grove (near 272)","WellingtonRd@Kew",-41.23555842,174.9472854,,,0,
10544,8968,"Wellington Road at Arakura Park (near 242)","WellingtonRd@242",-41.23783524,174.9462781,,,0,
10522,8967,"Wellington Road at Whitehall Street","WgtnRd@Whitehall",-41.24019981,174.9455906,,,0,
10520,8966,"Wellington Road at Norfolk Street (near 186)","Wellington@Norfolk",-41.24244414,174.9449345,,,0,
10517,8965,"Wellington Road at Kent Street (near 164)","WellingtonRd@Kent",-41.24458038,174.944381,,,0,
10495,8964,"Wellington Road at Dublin Street (near 128)","WellingtonRd@Dublin",-41.24706162,174.9438729,,,0,
10497,8963,"Wellington Road at Dover Road (near 100)","WellingtonRd@Dover",-41.24951068,174.9454091,,,0,
10453,8962,"Wellington Road at Devon Street (near 52)","WellingtonRd@Devon",-41.25243566,174.9468318,,,0,
10456,8961,"Wellington Road at Parkway (near 13)","WellingtonRd@13",-41.25467399,174.9473205,,,0,
10428,9984,"Fitzherbert Road at Gospel Chapel (near 24)","FitzherbertRd@24",-41.26011955,174.9475867,,,0,
10425,9985,"Wainuiomata Shopping Centre (10 Fitzherbert Rd","Wainuiomata Shops",-41.26185511,174.9475082,,,0,
10404,9906,"Main Road at Fitzherbert Road (near 9)","MainRd@Fitzherbert",-41.26309573,174.9477842,,,0,
10406,9907,"Main Road at Arthur Street (near 33)","MainRd@Arthur",-41.26491194,174.9495606,,,0,
10408,9908,"Main Road at Hyde Street","MainRd@Hyde",-41.26687922,174.9511516,,,0,
10392,9909,"Main Road at Stanley Street (near 93)","MainRd@Stanley",-41.26878971,174.9529525,,,0,
10394,9910,"Wainuiomata Village - Main Road (near 143)","Wainuiomata Village",-41.27311194,174.9544195,,,0,
10371,9911,"Wainuiomata Bus Depot - Main Road (opposite)","WainuiomataBusDepot",-41.27570264,174.9545139,,,0,
10373,9918,"Hine Road at Homedale Road (near 21)","HineRd@Homedale",-41.27611992,174.9573457,,,0,
10374,9919,"Hine Road (near 49)","HineRd@49",-41.27507584,174.9609095,,,0,
10377,9920,"Hine Road (near 97)","HineRd@97",-41.27462458,174.9647904,,,0,
10378,8921,"Wainuiomata - Sunny Grove","Sunny Grove",-41.27659155,174.9687258,,,0,
10376,8920,"Hine Road (near 106)","HineRd@106",-41.27502708,174.9645733,,,0,
10375,8919,"Hine Road (near 68)","HineRd@68",-41.27544551,174.9610615,,,0,
10372,8918,"Hine Road at Homedale Road (near 38)","HineRd@Homedale",-41.27647458,174.9576029,,,0,
10370,8911,"Wainuiomata Bus Depot - Main Road","WainuiomataBusDepot",-41.27557928,174.9539464,,,0,
10675,8159,"Hutt Valley High School - Woburn Road (opposit","Hutt Valley High",-41.21563752,174.9025826,,,0,
10628,8158,"Woburn Road at Hutt Recreation Ground","WoburnRd@RecGround",-41.217034,174.9043362,,,0,
10630,8157,"Ludlam Crescent at Wai-iti Crescent (near 28)","LudlamCres@Wai-iti",-41.22071534,174.9073885,,,0,
10597,8155,"Randwick Road at Moera Shops (near 130)","RandwickRd@130",-41.22684846,174.9057442,,,0,
10563,8154,"Randwick Road at Randwick School (near 94)","RandwickRd@94",-41.2296761,174.9050346,,,0,
10560,8153,"Randwick Road at Hutt Park Hotel","RandwickRd@HuttPark",-41.23249701,174.9044647,,,0,
10529,9731,"Seaview Road at Parkside Road","SeaviewRd@Parkside",-41.23800259,174.9071321,,,0,
10508,9732,"Seaview Road, Placemakers","Seaview@Placemakers",-41.2403638,174.9084544,,,0,
10509,9733,"Seaview Road at Barnes Street (near 55)","SeaviewRd@Barnes",-41.24236618,174.9091037,,,0,
10485,9735,"Seaview Road, Mobil Terminal (opposite)","SeaviewRd@Mobil",-41.24572278,174.9101092,,,0,
10486,9736,"Seaview Road (near 105)","SeaviewRd@105",-41.2486154,174.9102218,,,0,
10483,9837,"Seaview Marina - Marine Drive","Seaview Marina",-41.25013964,174.9075266,,,0,
10440,9838,"Point Howard","Point Howard Stop",-41.25290293,174.904925,,,0,
10414,9839,"Lowry Bay (near 230)","Lowry Bay",-41.25768236,174.9126911,,,0,
10403,9840,"York Bay (near 305)","York Bay",-41.26355712,174.9101219,,,0,
10401,9841,"Mahina Bay - Rangiuru Road","Mahina Bay@Rangiuru",-41.2674273,174.9077104,,,0,
10390,9842,"Mahina Bay (near 445)","Mahina Bay",-41.27016108,174.9082078,,,0,
10363,9843,"Sunshine Bay (near 517)","Sunshine Bay",-41.27608273,174.9047736,,,0,
10364,9844,"Days Bay - Ferry Road","Days Bay@Ferry Rd",-41.27745897,174.9051163,,,0,
10367,9845,"Days Bay - Marine Drive (Williams Park)","Days Bay",-41.28099546,174.9070939,,,0,
10341,9846,"Days Bay - Moana Road (opposite)","Days Bay@MoanaRd",-41.28258696,174.90626,,,0,
10339,9847,"Muritai Road at Marine Parade (near 79)","MuritaiRd@79",-41.28694625,174.9018711,,,0,
10326,9848,"Muritai Road at Houhere Terrace (near 107)","MuritaiRd@107",-41.2887291,174.9006531,,,0,
10324,9849,"Eastbourne Village - Muritai Road (near 139)","Eastbourne Village",-41.29093307,174.8982929,,,0,
10297,9851,"Muritai Road at Titoki Street (near 247)","MuritaiRd@247",-41.29475594,174.8960803,,,0,
10298,9852,"Muritai Road at Ngaio Street (near 275)","MuritaiRd@275",-41.29674005,174.8965273,,,0,
10295,9853,"Muritai Road at Hinau Street (near 315)","MuritaiRd@315",-41.29864635,174.8957309,,,0,
10257,9854,"Muritai Drive at Konini Street (near 335)","MuritaiRd@335",-41.30014392,174.8946486,,,0,
10256,9855,"Muritai Road at Kowhai Street (near 383)","MuritaiRd@326",-41.30219109,174.8925726,,,0,
10254,9856,"Muritai Road at Nikau Street (near 417)","MuritaiRd@417",-41.30414864,174.8906375,,,0,
10201,9857,"Muritai Road at Tawa Street (near 383)","MuritaiRd@383",-41.30554931,174.8881601,,,0,
10199,9858,"Eastbourne Terminus (near 497)","Eastbourne Terminus",-41.30787316,174.8851023,,,0,
11751,7133,"The Parade at Mersey Street (near 214)","TheParade@Mersey",-41.33700782,174.7726206,,,0,
11756,7132,"Island Bay Shops - The Parade (near 138)","Island Bay Shops",-41.33446603,174.7733408,,,0,
11757,7131,"The Parade at Avon Street (near 108)","TheParade@Avon",-41.33315864,174.773437,,,0,
21952,7130,"The Parade at Tamar Street (near 64)","TheParade@Tamar",-41.33105665,174.7736671,,,0,
21953,7129,"The Parade at Dee Street","TheParade@Dee",-41.32887982,174.7739088,,,0,
21954,7128,"Adelaide Road at Wakefield Park","AdelaideRd@Park",-41.32778674,174.7742958,,,0,
11766,7126,"Adelaide Road at Duppa Street","AdelaideRd@Duppa",-41.32398723,174.7749728,,,0,
11770,7125,"Adelaide Road (near 500)","AdelaideRd@500",-41.32157087,174.7750876,,,0,
11774,7124,"Berhampore Shops - Luxford St (BP)","Berhampore Shops",-41.31982086,174.7756452,,,0,
11776,7123,"Luxford Street at Rintoul Street (near 2)","LuxfordSt@Rintoul",-41.31986885,174.7774546,,,0,
10108,7122,"Rintoul Street at Waripori Street (near 188)","RintoulSt@Waripori",-41.31848198,174.7778291,,,0,
10109,7121,"Wakefield Hospital - Rintoul Street (near 128)","Wakefield Hospital",-41.31638894,174.7779385,,,0,
10110,7120,"Rintoul Street at Stoke Street (near 76)","RintoulSt@Stoke",-41.31467743,174.7781577,,,0,
10353,5011,"Lambton Quay - North End, Stop I","LambtonQy@NthEnd-I",-41.28007523,174.7758909,,,0,
10156,7918,"John Street at Adelaide Road (near 11)","JohnSt@Adelaide",-41.30721318,174.7770811,,,0,
10155,7917,"National Dance and Drama Centre - Stop A","NatDance&Drama-A",-41.30760902,174.7751543,,,0,
10157,6918,"John Street at Adelaide Road","JohnSt@Adelaide",-41.30714278,174.7775253,,,0,
10112,6021,"Constable Street at Owen Street (near 77)","ConstableSt@Owen",-41.31301522,174.783774,,,0,
10160,6022,"Constable Street at Coromandel St (near 123)","ConstableSt@123",-41.31259194,174.7868166,,,0,
10113,6023,"Crawford Road at Wellington Road","Crawford@Wellington",-41.31343239,174.7895125,,,0,
10114,6024,"Crawford Road at Duncan Terrace","Crawford@Duncan",-41.31577453,174.7919331,,,0,
10117,6025,"Crawford Road at Childers Terrace","Crawford@Childers",-41.31672896,174.7932642,,,0,
10120,6026,"Kilbirnie Shops -Stop D","Kilbirnie Shops-D",-41.31780663,174.7947427,,,0,
21898,6755,"Vogeltown Terminus - Farnham Street","Vogeltown Terminus",-41.31988843,174.7689818,,,0,
21899,7732,"Priscilla Crescent at Breton Grove (near 41)","PriscillaCres@41",-41.3224027,174.7670957,,,0,
21900,7731,"Halifax Street (near 24)","HalifaxSt@24",-41.32420178,174.7651718,,,0,
21789,7730,"Kingston Shops - Quebec Street","Kingston Shops",-41.32356654,174.7634474,,,0,
21790,7729,"Quebec Street at Baffin Grove (near 6)","QuebecSt@Baffin",-41.32099978,174.7635273,,,0,
21901,7759,"Farnham Street (near 100)","FarnhamSt@100",-41.31822065,174.7656466,,,0,
21902,7758,"Farnham Street (near 80)","FarnhamSt@80",-41.31922718,174.7652697,,,0,
21903,7757,"Farnham Street (near 42)","FarnhamSt@42",-41.32066715,174.7659287,,,0,
21904,7756,"Farnham Street (near 26)","FarnhamSt@26",-41.3209674,174.7670224,,,0,
22217,7755,"Farnham Street at Balfour Street","FarnhamSt@Balfour",-41.31983277,174.7689288,,,0,
11772,7199,"Britomart Street (near 130)","BritomartSt@130",-41.32054999,174.7717188,,,0,
10360,6000,"Wellington Station - Stop A","Wgtn Station-A",-41.27844807,174.7791035,,,0,
11781,6119,"Newtown Shops - Rintoul St (near 5)","Newtown Shops",-41.31270169,174.7789269,,,0,
11780,6120,"Rintoul Street at Stoke Street (near 61)","RintoulSt@Stoke",-41.31486403,174.7782876,,,0,
11779,6121,"Wakefield Hospital - Rintoul Street (near 99)","Wakefield Hospital",-41.31688146,174.7780641,,,0,
10240,7241,"Miramar - Darlington Road","Miramar Terminus",-41.30576974,174.8260634,,,0,
10142,7237,"Rotherham Terrace at Para Street (near 82)","RotherhamTce@Para",-41.31269107,174.8225537,,,0,
10178,7236,"Park Road at Rotherham Terrace (near 86)","ParkRd@Rotherham",-41.31187065,174.8197663,,,0,
10137,7235,"Park Road at Brussels Street","ParkRd@Brussels",-41.31324236,174.8186804,,,0,
10134,7234,"Park Road at Byron Street (near 34)","ParkRd@Byron",-41.3146116,174.8175789,,,0,
10131,7233,"Miramar Shops - Park Road","Miramar Shops",-41.31631578,174.8165633,,,0,
10092,7031,"Caledonia Street at Hobart Street (near 38)","CaledoniaSt@Hobart",-41.32152613,174.8126095,,,0,
10090,7030,"Caledonia Street at Calabar Road (near 10)","CaledoniaSt@Calabar",-41.32090777,174.8097921,,,0,
10124,7029,"Cobham Drive at Airport Runway","CobhamDr@Airport",-41.31726659,174.8057588,,,0,
10081,7028,"Rongotai Road at Salek Street (near 168)","RongotaiRd@Salek",-41.31912841,174.801246,,,0,
10076,7027,"Rongotai Road at Ross Street (near 118)","RongotaiRd@Ross",-41.31852639,174.7981299,,,0,
23371,7224,"Kilbirnie Shops - Stop B","Kilbirnie Shops-B",-41.31809783,174.7956247,,,0,
10118,7223,"Kilbirnie Library - Kilbirnie Crescent (opposi","Kilbirnie Library",-41.31604818,174.7937168,,,0,
10115,7222,"Wellington Regional Aquatic Centre (opposite)","Wgtn Aquatic Centre",-41.31510517,174.7929291,,,0,
10167,7221,"Hamilton Road at Wellington Road (near 124)","HamiltonRd@124",-41.31174972,174.7934546,,,0,
10161,7220,"Kupe Street at Moxham Avenue","KupeSt@Moxham",-41.31018397,174.7924189,,,0,
10163,7219,"Kilbirnie School - Moxham Avenue (near 118)","Kilbirnie School",-41.3085632,174.7924758,,,0,
10165,7218,"Moxham Avenue at Raupo Street (near 88)","MoxhamAve@Raupo",-41.3073528,174.7928561,,,0,
10218,7217,"Hataitai Village (near 35)","Hataitai Village",-41.30394748,174.7935542,,,0,
10217,7216,"Waitoa Road at Bus Tunnel (near 73)","WaitoaRd@Tunnel",-41.30212197,174.7918093,,,0,
10275,7215,"Pirie Street at Bus Tunnel (near 108)","PirieSt@Tunnel",-41.29906808,174.7879632,,,0,
10274,7214,"Pirie Street at Porritt Avenue (near 66)","PirieSt@Porritt",-41.29836393,174.7857359,,,0,
10271,7213,"Brougham Street at Elizabeth Street (near 46)","BroughamSt@46",-41.29678751,174.7851648,,,0,
10269,7212,"Elizabeth Street at Kent Terrace","ElizabethSt@Kent",-41.2958913,174.7833871,,,0,
10091,6030,"Caledonia Street at Calabar Road (near 9)","CaledoniaSt@Calabar",-41.32078676,174.8098705,,,0,
10093,6031,"Caledonia Street at Hobart Street (near 31)","CaledoniaSt@Hobart",-41.32141712,174.8126923,,,0,
10094,6232,"Hobart Street at Chelsea Street (near 107)","HobartSt@Chelsea",-41.31890185,174.8147664,,,0,
10132,6233,"Miramar Shops - Park Road (old shelter)","Miramar Shops",-41.31608229,174.8165258,,,0,
10143,6237,"Rotherham Terrace at Darlington Road (near 81)","RotherhamTce@81",-41.31262664,174.8227335,,,0,
10182,6238,"Darlington Road at Puriri Street (near 33)","DarlingtonRd@Puriri",-41.31160856,174.8237282,,,0,
10184,6239,"Darlington Road at Totara Terrace (near 65)","DarlingtonRd@Totara",-41.30975762,174.8245364,,,0,
10186,6240,"Darlington Road at Camperdown Rd (near 115)","DarlingtonRd@115",-41.30731014,174.8256159,,,0,
11617,4331,"Karori Park Pavilion - Karori Road","KaroriParkPavilion",-41.28712771,174.7249233,,,0,
11621,4327,"Karori Mall - Karori Road","Karori Mall",-41.28445298,174.7382019,,,0,
11623,4326,"Karori Road at Reading Street (near 218)","KaroriRd@Reading",-41.28398359,174.7398253,,,0,
11624,4325,"Karori Normal School - Karori Road (opposite)","Karori Normal Sch",-41.28365154,174.7410105,,,0,
11646,4322,"Chaytor Street at Joll Street (opposite)","ChaytorSt@Joll",-41.2826348,174.7523412,,,0,
11647,4321,"Chaytor Street at Curtis Street","ChaytorSt@Curtis",-41.28447301,174.7530009,,,0,
11648,4320,"Karori Sanctuary - Chaytor Street (at Tunnel)","Zealandia-ChaytorSt",-41.28709609,174.7547873,,,0,
11649,4319,"Glenmore Street at Northland Road","GlenmoreSt@190",-41.28702078,174.7568191,,,0,
11665,4317,"Glenmore Street at Kelburn Viaduct","GlenmoreSt@Viaduct",-41.28788409,174.7576289,,,0,
11666,4316,"Glenmore Street at The Rigi","GlenmoreSt@TheRigi",-41.28586209,174.7582563,,,0,
11667,4315,"Glenmore Street at Orangi Kaupapa Rd (near 108","GlenmoreSt@Orangi",-41.28357271,174.7618898,,,0,
11668,4314,"Glenmore Street at Garden Road","GlenmoreSt@GardenRd",-41.28245722,174.7631887,,,0,
11669,4313,"Botanic Garden - Glenmore Street (opposite)","Botanic Garden",-41.28064801,174.7668573,,,0,
11670,4312,"Tinakori Road at St Mary Street (near 360)","TinakoriRd@StMarySt",-41.27925117,174.7686227,,,0,
11671,4311,"Bowen Street","Bowen Street Stop",-41.27826071,174.7742283,,,0,
10075,6327,"Onepu Road at Coutts Street","OnepuRd@Coutts",-41.31998538,174.7957407,,,0,
10072,6328,"Onepu Road at Endeavour Street (near 95)","OnepuRd@Endeavour",-41.3234107,174.7954428,,,0,
10051,6329,"Onepu Road at Resolution Street (near 115)","OnepuRd@Resolution",-41.32455545,174.7954285,,,0,
10054,6330,"Lyall Bay Shops - Onepu Road (near 145)","Lyall Bay Shops",-41.3258659,174.7954035,,,0,
10055,6331,"Onepu Road at Apu Crescent (near 181)","OnepuRd@ApuRd",-41.32720426,174.7953674,,,0,
10053,6332,"Onepu Road at Lyall Parade (near 219)","OnepuRd@LyallPde",-41.32875095,174.7953653,,,0,
10047,6333,"Rua Street at Freyburg Street","RuaSt@Freyburg",-41.33008064,174.7928364,,,0,
10046,6334,"Rua Street at Queens Drive (near 17)","RuaSt@Queens",-41.33007069,174.7920764,,,0,
10026,6335,"Sutherland Road at Rua Street (near 217)","SutherlandRd@Rua",-41.33123898,174.7903415,,,0,
10027,6336,"Sutherland Road at Queens Drive (near 250)","SutherlandRd@Queens",-41.33230392,174.7905784,,,0,
10030,6337,"Queens Drive (opposite 302)","QueensDrv@302",-41.33514077,174.7911694,,,0,
10012,6338,"Lyall Bay - Hungerford Road","Lyall Bay Terminus",-41.33771483,174.7922895,,,0,
11593,5312,"Tinakori Road at St Mary Street","TinakoriRd@StMarySt",-41.27931355,174.7688137,,,0,
11594,5313,"Botanic Garden - Glenmore Street","Botanic Garden",-41.28072902,174.7669313,,,0,
11595,5315,"Glenmore Street at Orangi Kaupapa Rd","GlenmoreSt@Orangi",-41.28359368,174.7621043,,,0,
11596,5316,"Glenmore Street at The Rigi (near 147)","GlenmoreSt@TheRigi",-41.28555006,174.7591191,,,0,
11597,5317,"Glenmore Street at Kelburn Viaduct (near 177)","GlenmoreSt@Viaduct",-41.28782852,174.7577778,,,0,
11598,5318,"Glenmore Street (near 205)","GlenmoreSt@205",-41.28856081,174.7570256,,,0,
10334,5520,"Brandon Street","Brandon Street Stop",-41.28326667,174.7758434,,,0,
21916,7158,"Island Bay - Reef Street","Island Bay-ReefSt",-41.34314905,174.770793,,,0,
11747,7157,"The Esplanade at Beach Street","TheEsplanade@Beach",-41.34635834,174.7694196,,,0,
21917,7155,"The Esplanade (opposite 432)","TheEsplanade@432",-41.34812692,174.7626719,,,0,
21919,7153,"Owhiro Bay Parade - Happy Valley Road","HappyValleyRd@1",-41.34418209,174.7592482,,,0,
21920,7152,"Happy Valley Dairy (opposite)","HappyValleyRd@29",-41.34275039,174.7599875,,,0,
21921,7151,"Happy Valley Road (near 71)","HappyValleyRd@71",-41.34095053,174.7600268,,,0,
22377,7150,"Happy Valley Road (near 85)","HappyValleyRd@85",-41.33997534,174.7599965,,,0,
21923,7149,"Owhiro Bay School (opposite)","Owhiro Bay School",-41.33845148,174.7596228,,,0,
21924,7148,"Happy Valley Road (near 137)","HappyValleyRd@137",-41.33743871,174.7591023,,,0,
21926,7147,"Happy Valley Road (near 163)","HappyValleyRd@163",-41.33579309,174.7579807,,,0,
21927,7146,"Murchison Street at Happy Valley Park (opposit","MurchisonSt@Park",-41.33381613,174.7579683,,,0,
21928,7145,"Murchison Street at Domanski Cres (opposite)","Murchison@Domanski",-41.33542454,174.7602943,,,0,
21929,7144,"Murchison Street at Irwell Street","MurchisonSt@Irwell",-41.33660455,174.7640229,,,0,
21930,7143,"Frobisher Street at Murchison St (near 94)","FrobisherSt@94",-41.33734427,174.764949,,,0,
21931,7142,"Frobisher Street (near 64)","FrobisherSt@64",-41.33969959,174.7644526,,,0,
21932,7141,"Frobisher Street (near 44)","FrobisherSt@35",-41.34049134,174.7636478,,,0,
21933,7140,"Frobisher Street (near 24)","FrobisherSt@24",-41.34223184,174.762704,,,0,
21934,7139,"Severn Street at Frobisher Street","SevernSt@Frobisher",-41.34360857,174.7634004,,,0,
22375,7138,"Severn Street at Wye Street","SevernSt@Wye",-41.34247319,174.764421,,,0,
21936,7137,"Severn Street at Moselle Street (near 46)","SevernSt@Moselle",-41.34083068,174.7676899,,,0,
11773,7424,"Berhampore Shops - Adelaide Rd (near 450)","Berhampore Shops",-41.31964907,174.7752077,,,0,
11783,7418,"Adelaide Road at Stoke Street (near 340)","AdelaideRd@Stoke",-41.31431645,174.7756341,,,0,
11784,7417,"Adelaide Road at Hall Street (near 256)","AdelaideRd@Hall",-41.31021079,174.7768686,,,0,
22404,7010,"Island Bay - Dover Street","IslandBay-DoverSt",-41.32813638,174.7744008,,,0,
22773,5102,"Queen Margaret College (school stop)","Queen Margaret Coll",-41.2718451,174.7801154,,,0,
11778,6122,"South Wellington Intermediate (Rintoul St)","SthWgtnIntermediate",-41.31785889,174.778025,,,0,
11750,6136,"Humber Street at The Parade","HumberSt@TheParade",-41.34046468,174.7706665,,,0,
21937,6137,"Severn Street at Moselle Street","SevernSt@Moselle",-41.34127758,174.7672115,,,0,
21938,6139,"Severn Street at Frobisher Street (near 121)","SevernSt@Frobisher",-41.34375094,174.7635255,,,0,
21939,6140,"Frobisher Street (near 35)","FrobisherSt@35",-41.34194989,174.7626131,,,0,
21940,6141,"Frobisher Street (near 53)","FrobisherSt@53",-41.34058111,174.7632941,,,0,
21941,6142,"Frobisher Street (near 75)","FrobisherSt@75",-41.33961082,174.7642202,,,0,
21942,6143,"Frobisher Street at Murchison St (near 99)","FrobisherSt@99",-41.3374749,174.7647104,,,0,
21943,6144,"Murchison Street at Jordan Street","MurchisonSt@Jordan",-41.33674872,174.7639476,,,0,
21944,6145,"Murchison Street at Domanski Cres","Murchison@Domanski",-41.3356389,174.7604538,,,0,
21945,6146,"Murchison Street at Happy Valley Park","MurchisonSt@Park",-41.33401606,174.7580997,,,0,
23320,6147,"Happy Valley Road (opposite 165)","HappyValleyRd@165",-41.3356158,174.7581323,,,0,
21946,6149,"Owhiro Bay School","Owhiro Bay School Stop",-41.33840026,174.7597993,,,0,
21947,6150,"Happy Valley Road (near 88)","HappyValleyRd@88",-41.33998279,174.7601999,,,0,
22376,6151,"Happy Valley Road (near 70)","HappyValleyRd@70",-41.34088298,174.760228,,,0,
21948,6152,"Happy Valley Dairy","Happy Valley Dairy Stop",-41.34267181,174.7602221,,,0,
21949,6153,"Owhiro Bay Parade - Happy Valley Road (near 4)","HappyValleyRd@4",-41.344274,174.7594291,,,0,
22378,6155,"The Esplanade (near 432)","TheEsplande@432",-41.3479659,174.762748,,,0,
21951,6156,"The Esplanade (near 354)","TheEsplanade@354",-41.34793719,174.7667959,,,0,
11746,6157,"The Esplanade at Beach Street (near 300)","TheEsplanade@Beach",-41.3458706,174.7695409,,,0,
22974,6158,"Island Bay - Reef Street (near 30)","IslandBay-ReefSt",-41.34298112,174.7707141,,,0,
22774,5101,"Wellington Girls College (school stop)","Wellington Girls",-41.2755233,174.7802875,,,0,
11785,6417,"Adelaide Road at Hall Street (near 259)","AdelaideRd@Hall",-41.3108934,174.776826,,,0,
11782,6418,"Adelaide Road at Stoke Street (near 343)","AdelaideRd@Stoke",-41.31437255,174.7757817,,,0,
21955,6419,"Adelaide Road at McAlister Park (near 389)","AdelaideRd@398",-41.31724399,174.7756675,,,0,
23177,6003,"Wellington Station - Stop V","Wgtn Station-V",-41.27876333,174.778515,,,0,
21791,7728,"The Ridgeway at Wentworth Street (near 130)","Ridgeway@Wentworth",-41.31780685,174.7639363,,,0,
21792,7726,"The Ridgeway at Mornington Road","Ridgeway@Mornington",-41.31596049,174.7651934,,,0,
21793,7725,"Mills Road at Vennell Street (near 48)","MillsRd@Vennel",-41.31343683,174.765512,,,0,
21794,7724,"Mills Road at Veronica Street (near 26)","MillsRd@Veronica",-41.31218859,174.7657692,,,0,
21795,7723,"Washington Ave at Connaught Tce","WashingtonAv@148",-41.30929708,174.7655702,,,0,
21796,7722,"Washington Avenue (near 104)","WashingtonAv@104",-41.30771162,174.7666078,,,0,
21797,7721,"Brooklyn School - Washington Avenue","Brooklyn School",-41.30583766,174.76662,,,0,
21798,7720,"Brooklyn Library","Brooklyn Library Stop",-41.3050982,174.7655481,,,0,
21799,7719,"Brooklyn Village - Cleveland Street","Brooklyn Village",-41.30539908,174.7636286,,,0,
21800,7718,"Ohiro Road at Tanera Crescent (near 154)","OhiroRd@Tanera",-41.30387333,174.7634621,,,0,
21801,7717,"Brooklyn Road at Ohiro Road","BrooklynRd@Ohiro",-41.30264933,174.7645464,,,0,
21802,7716,"Brooklyn Road at Washington Ave (opposite)","Brooklyn@Washington",-41.30264193,174.7660774,,,0,
21804,7715,"Brooklyn Road at Bidwill Street (opposite)","BrooklynRd@Bidwill",-41.30266677,174.7691521,,,0,
21805,7714,"Renouf Tennis Centre","Renouf Tennis Ctr",-41.30142018,174.7691177,,,0,
21806,7713,"Central Park","Central Park Stop",-41.29869484,174.7685349,,,0,
21807,7712,"Brooklyn Road at Webb Street (Pukehinau Flats)","BrooklynRd@WebbSt",-41.29722434,174.7698393,,,0,
21808,7711,"Willis Street - Abel Smith Street","WillisSt@AbelSmith",-41.29467994,174.771465,,,0,
21809,7710,"Willis Street - Cumberland House","WillisSt@Cumberland",-41.29331511,174.7722299,,,0,
21810,7709,"Willis Street - Dixon Street","WillisSt@Dixon",-41.2911615,174.7734769,,,0,
21811,7708,"Willis Street - Flagstaff Lane","WillisSt@Flagstaff",-41.28994431,174.7741159,,,0,
10361,6001,"Wellington Station - Stop B","Wgtn Station-B",-41.27838303,174.7792331,,,0,
21812,6708,"Victoria Street - Manners Mall","VictoriaSt@Manners",-41.29095588,174.7753697,,,0,
21813,6710,"Victoria Street - Vivian Street","VictoriaSt@Vivian",-41.29372014,174.7732116,,,0,
21814,6711,"Victoria Street - Abel Smith Street","VictoriaSt@233",-41.29505984,174.7724942,,,0,
21815,6712,"Brooklyn Road at Webb Street","BrooklynRd@WebbSt",-41.29714388,174.7703012,,,0,
21816,6713,"Central Park (opposite)","Central Park",-41.29868557,174.7686878,,,0,
21817,6714,"Renouf Tennis Centre (opposite)","Renouf Tennis Ctr",-41.30073846,174.7695149,,,0,
21818,6715,"Brooklyn Road at Bidwill Street","BrooklynRd@Bidwill",-41.30276253,174.7697224,,,0,
21819,6716,"Brooklyn Road at Washington Ave","Brooklyn@Washington",-41.30282475,174.7659244,,,0,
21820,6717,"Brooklyn Road at Brooklyn Terrace","BrooklynRd@Brooklyn",-41.30275994,174.7644921,,,0,
21821,6718,"Ohiro Road at Tanera Crescent (near 157)","OhiroRd@Tanera",-41.3042123,174.7635822,,,0,
21822,6719,"Brooklyn Village - Ohiro Road","Brooklyn Village",-41.30496302,174.763408,,,0,
21823,6720,"Brooklyn Library (opposite)","Brooklyn Library",-41.3049326,174.765062,,,0,
21825,6721,"Washington Avenue (near 83)","WashingtonAv@83",-41.30717618,174.7668451,,,0,
21824,6722,"Washington Avenue (near 115)","WashingtonAv@115",-41.308287,174.7663267,,,0,
21826,6723,"Washington Ave at Connaught Tce (near 151)","WashingtonAv@151",-41.31016423,174.7662596,,,0,
21827,6724,"Mills Road at Fortunatus Street (near 23)","MillsRd@Fortunatus",-41.31205996,174.7659711,,,0,
21828,6725,"Mills Road at Vennell Street (near 59)","MillsRd@Vennel",-41.31394945,174.7657021,,,0,
21829,6726,"The Ridgeway at Ingestre Street (near 93)","Ridgeway@Ingestre",-41.31584161,174.7653819,,,0,
21830,6727,"The Ridgeway (near 111)","Ridgeway@111",-41.31700989,174.7649578,,,0,
21831,6728,"The Ridgeway at Farnham Street (near 137)","Ridgeway@Farnham",-41.31833697,174.7639947,,,0,
21832,6729,"The Ridgeway at Kingston Heights Road (near 17","Ridgeway@175",-41.32071462,174.7639661,,,0,
21833,6730,"Kingston Shops - Quebec Street (opposite)","Kingston Shops",-41.32353324,174.763688,,,0,
21848,7774,"Kowhai Park - Mitchell Street","Kowhai Park",-41.31554096,174.7582793,,,0,
21849,7773,"Mitchell Street (near 212)","MitchellSt@212",-41.31430053,174.7568548,,,0,
21850,7772,"Mitchell Street at Virginia Grove (near 184)","MitchellSt@Virginia",-41.31270152,174.7574322,,,0,
21851,7771,"Mitchell Street at Colorado Grove (near 162)","MitchellSt@Colorado",-41.31065696,174.7580455,,,0,
22213,7770,"Mitchell Street at Hoover Street (near 138)","MitchellSt@Hoover",-41.30872654,174.7585435,,,0,
21852,7769,"Mitchell Street at Karepa Street (near 114)","MitchellSt@Karepa",-41.30764061,174.7580951,,,0,
21853,7768,"Karepa Street (opposite 171)","KarepaSt@171",-41.30600213,174.7574573,,,0,
21854,7767,"Karepa Street at Ashton Fitchett Dr (near 102)","KarepaSt@102",-41.30424342,174.7581775,,,0,
21855,7766,"Karepa Street (near 80)","KarepaSt@80",-41.30255773,174.7584011,,,0,
21856,7764,"Apuka Street at Mitchell Street (near 48)","ApukaSt@Mitchell",-41.3021055,174.7598486,,,0,
21857,7763,"Mitchell Street (near 33)","MichellSt@33",-41.3035422,174.7599078,,,0,
21858,7762,"Todman Street at Mitchell Street (near 88)","TodmanSt@Mitchell",-41.30598983,174.7596191,,,0,
21859,7761,"Todman Street (near 60)","TodmanSt@60",-41.30653584,174.7610438,,,0,
21835,6761,"Todman Street (near 53)","TodmanSt@53",-41.30675145,174.7609316,,,0,
21836,6762,"Todman Street at Mitchell Street (near 97)","TodmanSt@Mitchell",-41.30630443,174.7595771,,,0,
21837,6763,"Mitchell Street (near 38)","MitchellSt@38",-41.30375921,174.7597153,,,0,
21838,6764,"Apuka Street at Mitchell Street","ApukaSt@Mitchell",-41.30224963,174.7598292,,,0,
21839,6765,"Karepa Street at Apuka Street (near 57)","KarepaSt@Apuka",-41.302153,174.7587022,,,0,
21841,6766,"Karepa Street (near 73)","KarepaSt@73",-41.30261379,174.7585819,,,0,
21840,6767,"Karepa Street at Ashton Fitchett Dr (near 125)","KarepaSt@125",-41.30406042,174.7584026,,,0,
21842,6768,"Karepa Street (near 175)","KarepaSt@175",-41.30591592,174.75766,,,0,
21843,6769,"Karepa Street at Mitchell Street","KarepaSt@Mitchell",-41.30699263,174.7577969,,,0,
21844,6770,"Mitchell Street at Hoover Street (near 129)","MitchellSt@Hoover",-41.30846701,174.7589803,,,0,
21845,6771,"Mitchell Street at Phoenix Way (near 157)","MitchellSt@Pheonix",-41.31055409,174.7583313,,,0,
21847,6772,"Mitchell Street at Virginia Grove","MitchellSt@Virginia",-41.31311357,174.7574314,,,0,
21846,6773,"Mitchell Street (near 207)","MitchellSt@207",-41.31430489,174.7570659,,,0,
21860,7786,"Aro Street Terminus","Aro Street Terminus Stop",-41.29368114,174.7610377,,,0,
21861,7785,"Aro Street at Durham Street","AroSt@Durham",-41.2948015,174.7634543,,,0,
21862,7784,"Aro Street at Devon Street (near 92)","AroSt@Devon",-41.29527687,174.7668625,,,0,
21863,7782,"Aro Street at Willis Street","AroSt@Willis",-41.29608993,174.7702375,,,0,
21864,6782,"Aro Street at Ohiro Road","AroSt@Ohiro",-41.2961054,174.7697615,,,0,
21865,6783,"Aro Street at Boston Terrace","AroSt@Boston",-41.29561264,174.7681831,,,0,
21866,6784,"Aro Street at Epuni Street (near 105)","AroSt@Epuni",-41.29540889,174.7664852,,,0,
21867,6785,"Aro Street at Durham Street (near 181)","AroSt@Durham",-41.29527392,174.7641144,,,0,
22421,7923,"Newtown Park - Wellington Zoo","Newtown Park Zoo",-41.31922,174.7837892,,,0,
11761,7922,"Mansfield Street at Roy Street (near 305)","MansfieldSt@RoySt",-41.3185258,174.7811964,,,0,
11763,7920,"Riddiford Street at Gordon St (Caltex)","RiddifordSt@Gordon",-41.31571918,174.7802806,,,0,
10206,7916,"Wallace Street at Carrington Street (near 112)","WallaceSt@112",-41.30601753,174.7749765,,,0,
10204,7915,"Wallace Street at Howard Street (near 82)","WallaceSt@Howard",-41.30461892,174.7749241,,,0,
10202,7914,"Massey University - Wallace Street (opposite)","MasseyUni@WallaceSt",-41.30206894,174.7740487,,,0,
10259,7913,"Taranaki Street (near 274)","TaranakiSt@274",-41.29979609,174.7746071,,,0,
10262,7912,"Taranaki Street at Abel Smith Street","TaranakiSt@AbelSmth",-41.29726044,174.7760461,,,0,
10263,7911,"Taranaki Street at Vivian Street (Briscoes)","TaranakiSt@Vivian",-41.2951883,174.7771692,,,0,
22352,7910,"Taranaki Street at Courtenay Place (near 72)","Taranaki@Courtenay",-41.29337448,174.778209,,,0,
10305,6910,"Taranaki Street at Courtenay Place","Taranaki@Courtenay",-41.29307681,174.7786377,,,0,
10264,6911,"Taranaki Street at Vivian Street","TaranakiSt@Vivian",-41.2958666,174.7769855,,,0,
10260,6913,"Taranaki Street (near 217)","TaranakiSt@217",-41.2992175,174.7751611,,,0,
10203,6914,"Massey University - Wallace Street","MasseyUni@WallaceSt",-41.30239784,174.7744732,,,0,
10207,6915,"Wallace Street at Howard Street","WallaceSt@Howard",-41.30463741,174.7750813,,,0,
10205,6917,"Wallace Street at John Street (near 143)","WallaceSt@JohnSt",-41.30692072,174.7751744,,,0,
11762,6921,"Mansfield Street (near 277)","MansfieldSt@277",-41.31722772,174.7809382,,,0,
11759,6922,"Mansfield Street at Roy Street (near 311)","MansfieldSt@RoySt",-41.31881573,174.7814355,,,0,
11890,7041,"Dundas Street at Monro Street (near 68)","DundasSt@Monro",-41.32343895,174.8341972,,,0,
11831,7040,"Seatoun Village - Dundas Street","Seatoun Village",-41.32270208,174.8305799,,,0,
11830,7039,"Ferry Street at Ludlam Street (near 49)","FerrySt@Ludlam",-41.32291221,174.828789,,,0,
11829,7038,"Broadway at Cavendish Square","Broadway@Cavendish",-41.32456581,174.8261275,,,0,
11908,7037,"Broadway at Tio Tio Road (near 530)","Broadway@TioTio",-41.32415704,174.822775,,,0,
11827,7036,"Strathmore Park Shops - Broadway","StrathmoreParkShops",-41.32459224,174.8207125,,,0,
10064,7035,"Broadway at Monorgan Road","Bradway@Monorgan",-41.32521042,174.8184431,,,0,
11826,7034,"Broadway at Crawford Green (near 426)","Broadway@Crawford",-41.32533857,174.814493,,,0,
11823,7033,"Hobart Street at Broadway (near 3)","HobartSt@Broadway",-41.3250308,174.8119056,,,0,
11821,7032,"Hobart Street at Kedah Street (near 31)","HobartSt@Kedah",-41.32371316,174.8123895,,,0,
22171,5920,"Karori Sanctuary - Northland Tunnel Road","Northland Tunnel Rd",-41.28652901,174.7547719,,,0,
22172,5921,"Northland Tunnel (opposite Putnam St)","Northland Tunnel",-41.28487474,174.7548826,,,0,
22173,5922,"Northland Village - Northland Road (Hell Pizza","Northland Village",-41.28322915,174.757402,,,0,
22174,5923,"Northland Road (near 87)","NorthlandRd@87",-41.28151984,174.7588183,,,0,
22175,5924,"Northland Road at Kaihuia Street (near 127)","NorthlandRd@127",-41.27934088,174.7595559,,,0,
22176,5925,"Northland Road at Pembroke Road (near 141)","NorthlandRd@141",-41.27942775,174.7611635,,,0,
22177,5926,"Pembroke Road (near 19)","PembrokeRd@19",-41.27766913,174.7605614,,,0,
22179,5927,"Pembroke Road at Cheshire Street (near 67)","PembrokeRd@67",-41.27607616,174.7590859,,,0,
22181,5928,"Pembroke Road at Huntingdon Street (near 117)","PembrokeRd@117",-41.27392468,174.7583283,,,0,
22182,5929,"Pembroke Road at Hereford Street  (near 171)","PembrokeRd@171",-41.27191896,174.7584937,,,0,
22184,5930,"Pembroke Road (near 203)","PembrokeRd@203",-41.27050574,174.7630952,,,0,
22185,5931,"Mairangi Road (near 217)","MairangiRd@217",-41.26890297,174.7635255,,,0,
22186,5932,"Mairangi Road at Euston Road (near 130)","MairangiRd@130",-41.26740403,174.7656054,,,0,
22188,5933,"Mairangi Road at Dorset Way (near 112)","MairangiRd@112",-41.26700989,174.7662438,,,0,
22190,5934,"Mairangi Road at Rutland Way (near 92)","MairangiRd@92",-41.26607871,174.7670465,,,0,
22191,5935,"Mairangi Road at Norwich Street (near 68)","MairangiRd@68",-41.26468469,174.7662912,,,0,
22192,4936,"Mairangi - Norwich Street","Mairangi-Norwich St",-41.26522915,174.764382,,,0,
22193,4935,"Norwich Street at Mairangi Road (near 2)","MairangiRd@2",-41.26433772,174.7662816,,,0,
22194,4934,"Mairangi Road at Rutland Way (near 107)","MairangiRd@107",-41.26564547,174.766954,,,0,
22196,4932,"Mairangi Road at Warwick Street (near 135)","MairangiRd@135",-41.2675328,174.76589,,,0,
22198,4931,"Mairangi Road (near 159)","MairangiRd@159",-41.26882064,174.7637513,,,0,
22200,4930,"Mairangi Road at Monmouth Way (near 196)","MairangiRd@196",-41.27083247,174.7626413,,,0,
22201,4929,"Pembroke Road at Hereford Street","PembrokeRd@Hereford",-41.27162558,174.7594742,,,0,
22202,4928,"Pembroke Road at Huntingdon Street","Pembroke@Huntingdon",-41.27388966,174.7585707,,,0,
22204,4927,"Pembroke Road at Cheshire Street (near 72)","PembrokeRd@72",-41.27626188,174.759441,,,0,
22205,4926,"Pembroke Road (near 24)","PembrokeRd@24",-41.27758372,174.760717,,,0,
10056,7346,"Airport Retail Park - Tirangi Road (opposite)","Airport Retail Park",-41.32652781,174.8020644,,,0,
10085,7344,"Coutts Street (near 214)","CouttsSt@214",-41.32308056,174.8029948,,,0,
10084,7343,"Rongotai College - Coutts Street (near 186)","Rongotai College",-41.32186071,174.8019264,,,0,
11805,7535,"Hataitai Village (Methodist Church)","Hataitai Village",-41.304252,174.7950122,,,0,
11806,7534,"Waipapa Road (near 96)","WaipapaRd@96",-41.30343893,174.7970371,,,0,
22465,7533,"Waipapa Road at Huia Road (near 66)","WaipapaRd@Huia",-41.30215769,174.7984347,,,0,
22466,7532,"Waipapa Road at Peranga Terrace (near 38)","WaipapaRd@Peranga",-41.30051846,174.8001252,,,0,
22467,7531,"Waipapa Road at Te Anau Rd (near 20)","WaipapaRd@TeAnua",-41.29987825,174.8012277,,,0,
22468,7530,"Arawa Road at Hohiria Road (near 18)","ArawaRd@Hihiria",-41.29908913,174.8012153,,,0,
22476,7529,"Hataitai Road at Te Anau Road (near 10)","HataitaiRd@TeAnau",-41.29724779,174.8011965,,,0,
11809,7527,"Grafton Road (near 114)","GraftonRd@114",-41.29466861,174.8005713,,,0,
11811,7526,"Grafton Road (near 102)","GraftonRd@102",-41.2937299,174.8003895,,,0,
11812,7525,"The Crescent at Grafton Road (near 66)","TheCres@GraftonRd",-41.29182119,174.8002548,,,0,
11814,7524,"The Crescent (near 44)","GraftonRd@44",-41.2905406,174.7998069,,,0,
11816,7523,"The Crescent (near 14)","GraftonRd@14",-41.28918557,174.8005777,,,0,
22477,7522,"Grafton Road at The Crescent (near 22)","GraftonRd@TheCres",-41.28924204,174.8018459,,,0,
11819,7521,"Roseneath Shops (opposite)","Roseneath Shops",-41.28786584,174.8021939,,,0,
22479,7520,"Carlton Gore Road at Lindum Terrace","CarltonGore@Lindum",-41.28818659,174.8014395,,,0,
10336,7519,"Oriental Parade at Carlton Gore Rd","OrientalPd@Carlton",-41.288356,174.7996097,,,0,
10318,7518,"Oriental Parade (near 328)","OrientalPd@328",-41.28912269,174.7979416,,,0,
10316,7517,"Oriental Parade at Grass Street (near 260)","OrientalPd@Grass",-41.29115522,174.79571,,,0,
10315,7515,"Oriental Parade at Oriental Terrace","OrientalPd@Terrace",-41.29139974,174.7929498,,,0,
10314,7514,"Oriental Parade at Freyberg Pool (opposite)","OrientalPd@Freyburg",-41.29122596,174.7900131,,,0,
10311,7512,"Oriental Parade at Cable Street (near 62)","OrientalPd@Cable",-41.29232721,174.7858228,,,0,
22138,5130,"Warwick Street at Wilton Road","WarwickSt@Wilton",-41.26826681,174.7596513,,,0,
22140,5131,"Warwick Street at Gloucester Street (near 4)","WarwickSt@4",-41.26879247,174.7596838,,,0,
22141,5132,"Gloucester Street (near 5)","GloucesterSt@5",-41.26923022,174.758686,,,0,
22142,5133,"Gloucester Street at Worcester St (near 21)","GloucesterSt@21",-41.27010584,174.7566447,,,0,
22143,5134,"Gloucester Street at Wilton Road (near 51)","GloucesterSt@51",-41.2687533,174.7570333,,,0,
22144,5135,"Wilton Park - Wilton Road (near 185)","Wilton Park",-41.26982446,174.755114,,,0,
22145,4136,"Wilton - Surrey Street","Wilton-SurreySt",-41.27138122,174.7548943,,,0,
22481,4139,"Cardinal McKeefry School - Wilton Rd","Cardinal McKeefrey",-41.27538077,174.7562626,,,0,
22146,4135,"Wilton Park - Wilton Road","Wilton Park",-41.26978331,174.7549531,,,0,
22147,4134,"Otari-Wilton's Bush (Otari School)","Otari-Wiltons Bush",-41.26832547,174.7565657,,,0,
22148,4133,"Gloucester Street at Worcester St (near 22)","GloucesterSt@22",-41.26988394,174.7565958,,,0,
22150,4132,"Gloucester Street (near 14)","GloucesterSt@14",-41.26913569,174.7585232,,,0,
22151,4131,"Warwick Street at Gloucester Street","Warwick@Gloucester",-41.26854594,174.759419,,,0,
22153,4130,"Wilton Road at Warwick Street (near 122)","WiltonRd@Warwick",-41.26798633,174.7601086,,,0,
22155,4129,"Wilton Road (near 74)","WiltonRd@74",-41.26621709,174.7628557,,,0,
22157,4128,"Izard Park - Wilton Road","Izard Park",-41.26428191,174.7641298,,,0,
22159,4127,"Wilton Road at Purakau Avenue (near 6)","WiltonRd@Purakau",-41.26236756,174.7655079,,,0,
22160,4126,"Wadestown School - Wilton Road (opposite)","Wadestown School",-41.26165019,174.7671668,,,0,
22161,4125,"Wadestown Road at Lytton Street (near 158)","WadestownRd@Lytton",-41.26161933,174.769782,,,0,
22162,4123,"Wadestown Shops (near 98)","Wadestown Shops",-41.26184226,174.7744934,,,0,
22163,4122,"Wadestown Road at Pitt Street","WadestownRd@Pitt",-41.26180975,174.7760313,,,0,
22164,4121,"Lennel Road at Moorhouse Street","LennelRd@Moorhouse",-41.26264224,174.7773737,,,0,
22165,4120,"Lennel Road at Sefton Street","LennelRd@Sefton",-41.26412198,174.7786539,,,0,
22166,4119,"Grosvenor Terrace at Barnard Street","Grosvenor@Barnard",-41.26521625,174.7813378,,,0,
22167,4118,"Grosvenor Terrace at Lower Watt St (opposite)","Grosvenor@LowerWatt",-41.26605382,174.7800231,,,0,
22168,4117,"Grosvenor Terrace at Orchard Street (opposite)","Grosvenor@Orchard",-41.26723232,174.7797648,,,0,
22169,4116,"Grant Road at Newman Terrace (near 35)","GrantRd@Newman",-41.2693048,174.7783117,,,0,
22170,4115,"Park Street at Tinakori Road (near 6)","ParkSt@Tinakori",-41.27144293,174.7772332,,,0,
11592,4114,"Murphy Street - Motorway","MurphySt@Motorway",-41.27235211,174.7779443,,,0,
10310,6512,"Waitangi Park - Cable Street","Waitangi Park",-41.29222406,174.7848663,,,0,
10312,6513,"Oriental Parade at Chaffers Marina","OrientalPd@Chaffers",-41.29169329,174.7868473,,,0,
10313,6514,"Oriental Parade at Freyberg Pool","OrientalPd@Freyburg",-41.29108317,174.7899277,,,0,
11579,6515,"Oriental Parade at Oriental Terrace (opposite)","OrientalRd@Terrace",-41.29125614,174.7929168,,,0,
11580,6516,"Oriental Parade at Fishermans Table","OrientalPd@236",-41.29125426,174.7941897,,,0,
22447,6517,"Oriental Parade at Grass Street","OrientalPde@Grass",-41.29080611,174.7963092,,,0,
10317,6518,"Oriental Parade (opposite 324)","OrientalPd@324",-41.28933044,174.7973171,,,0,
10335,6519,"Oriental Parade at Carlton Gore Rd (opposite)","OrientalPd@Carlton",-41.28812404,174.7996584,,,0,
22458,6521,"Roseneath Shops","Roseneath Shops Stop",-41.28782223,174.8024152,,,0,
11818,6522,"Grafton Road at The Crescent (near 21)","GraftonRd@21",-41.28965946,174.8017494,,,0,
11817,6524,"Grafton Road (near 39)","GraftonRd@39",-41.290777,174.8013893,,,0,
11813,6525,"Grafton Road at The Crescent","GraftonRd@TheCres",-41.29207224,174.8005187,,,0,
11810,6526,"Grafton Road (near 97)","GraftonRd@97",-41.29374608,174.8005944,,,0,
11808,6527,"Grafton Road (near 123)","GraftonRd@123",-41.29470796,174.8007688,,,0,
22459,6528,"Grafton Road (near 171)","GraftonRd@171",-41.29658233,174.8020225,,,0,
22460,6529,"Hataitai Road at Arawa Road","HataitaiRd@Arawa",-41.29764733,174.8010212,,,0,
10083,6343,"Rongotai College - Coutts Street (near 161)","Rongotai College",-41.32124361,174.8014507,,,0,
10086,6344,"Coutts Street (near 203)","CouttsSt@203",-41.32304044,174.803206,,,0,
10057,6346,"Airport Retail Park - Tirangi Road","Airport Retail Park",-41.32626067,174.8023663,,,0,
22509,5139,"Cardinal McKeefry School - Wilton Rd (opposite","Cardinal McKeefrey",-41.27541175,174.7560431,,,0,
11650,4918,"Kelburn Normal School - Upland Road","Kelburn Normal Sch",-41.28714099,174.7608937,,,0,
11651,4917,"Kelburn Village - Upland Road (near 94)","Kelburn Village",-41.28893858,174.7620895,,,0,
11652,4916,"Upland Road at Glasgow Street (near 38)","UplandRd@Glasgow",-41.28750862,174.7656966,,,0,
11653,4915,"Victoria University - Kelburn Parade (near 42)","VictoriaUni-Kelburn",-41.28875422,174.7677554,,,0,
10327,4914,"The Terrace at Salamanca Road (near 230)","TheTerrace@230",-41.28811877,174.7722186,,,0,
10328,4913,"The Terrace at Dalmuir Lane (near 130)","TheTerrace@Dalmuir",-41.28341883,174.7744956,,,0,
10346,4912,"The Terrace at Aurora Terrace (near 70)","TheTerrace@Aurora",-41.28148604,174.7749489,,,0,
10348,4911,"The Terrace at Bolton Street (near 22)","TheTerrace@Bolton",-41.27981471,174.7752839,,,0,
23179,7909,"Ghuznee Street - Cuba Street (near 37)","GhuzneeSt@CubaSt",-41.29358679,174.7763472,,,0,
23206,7908,"Ghuznee Street at Willis Street","GhuzneeSt@WillisSt",-41.29257776,174.7731653,,,0,
